stop_id,score,address,latitude,longitude
ST-453,100.0,서울특별시 은평구 진관동 86-31구파발역 2번출구,37.636234,126.918999
ST-1483,27.235507098417955,서울특별시 은평구 진관2로 15-46은평구 진관2로 15-46,37.639259,126.918907
ST-1035,17.49244170457901,서울특별시 불광동 487-2연신내역 1번 출구,37.619781,126.920807
ST-1481,14.930006668932444,서울특별시 은평구 진관2로 지하 15-25구파발역 환승센터,37.638252,126.919456
ST-2905,12.538971758008142,서울특별시 마포구 망원로 1-1 토목과 자재창고,37.555576,126.896889
ST-1329,12.021071580750979,서울특별시 은평구 진관3로 77은평뉴타운구파발9단지,37.642609,126.921478
ST-1024,11.839160323970605,서울특별시 진관동 44-28금암 문화공원,37.644684,126.918457
ST-452,10.704246141003114,서울특별시 은평구 진관동 5-8은평뉴타운 푸르지오,37.648674,126.930702
ST-471,9.74708520733671,서울특별시 은평구 불광동 355국민은행 연서지점,37.620949,126.925636
ST-1039,9.64654178490424,서울특별시 불광동 73-1번지서울연신초등학교,37.625778,126.928818
ST-451,9.219402960929072,서울특별시 은평구 진관동 13-20은평뉴타운 아이파크,37.645866,126.927391
ST-3058,8.955916371307174,서울특별시 은평구 진관동 91-10,37.634701,126.917358
ST-456,8.244139388759578,서울특별시 은평구 갈현동 536-8구산역 4번출구,37.613186,126.917351
ST-1023,8.243577089964003,서울특별시 은평구 진관동 30-23상림마을 롯데캐슬2단지 옆,37.645851,126.923798
ST-476,8.17255697506963,서울특별시 은평구 진관동 133-29은평역사한옥박물관,37.641315,126.938042
ST-2244,7.508216356116805,서울특별시 은평구 진관4로 26 진관고등학교,37.643509,126.924103
ST-481,7.38612067147425,서울특별시 은평구 서오릉로 163LG서비스 역촌점,37.612484,126.914879
ST-454,6.820974464818318,서울특별시 은평구 대조동 207-8연신내역 5번출구,37.61721,126.919579
ST-2260,6.799905940142476,서울특별시 은평구 진관동 289,37.658287,126.945297
ST-2259,6.5966439661337954,서울특별시 은평구 진관동 298-2,37.656769,126.942009
ST-2263,6.388202896778821,서울특별시 은평구 진관1로 52,37.631409,126.925407
ST-1028,6.150334951656662,서울특별시 진관동 16-4상림마을 생태공원,37.644081,126.929283
ST-3028,5.752128357054422,서울특별시 은평구 불광동 476-10,37.627945,126.919769
ST-2780,5.712367188840414,서울특별시 은평구 연서로,37.629627,126.930115
ST-450,5.69495079585652,서울특별시 은평구 진관동 45-21진관동 은빛초등학교,37.643108,126.918221
ST-455,5.049129979984057,서울특별시 은평구 역촌동 43-11CJ 드림시티,37.599491,126.916862
ST-1480,4.787956441605771,서울특별시 은평구 진관3로 73-17구파발10단지 인근,37.643662,126.914558
ST-3126,4.771674978901526,서울특별시 은평구 진관동 85-3,37.634068,126.925392
ST-1027,4.686171339749972,서울특별시 진관동 141-27은평뉴타운 도서관,37.637222,126.933304
ST-2264,4.628233928563025,서울특별시 은평구 연서로 9 센타폴리스,37.599968,126.915726
ST-2782,4.182934312801214,서울특별시 은평구 통일로 873 청구성심병원,37.620876,126.9198
ST-2261,3.6064276737433127,서울특별시 은평구 진관동 235-2,37.630287,126.919563
ST-1489,3.42798088751341,서울특별시 은평구 진관4로 48-50은평뉴타운 상림마을 13단지,37.64209,126.929413
ST-17,3.2825893236110524,서울특별시 서대문구 통일로 483홍은사거리 앞,37.59116,126.94133
ST-1031,3.267431953961623,서울특별시 은평구 진관동 149-17기자촌 사거리,37.63414,126.932343
ST-1038,3.1539011047952767,서울특별시 불광동 400-4번지서울연신중학교,37.62265,126.925247
ST-3201,3.0978399596971027,서울특별시 은평구 진관동 151-10,37.628342,126.933815
ST-467,3.085511869169789,서울특별시 은평구 녹번동 15-2서울혁신파크,37.607025,126.933311
ST-475,3.0191495371128743,서울특별시 은평구 불광동 304-5연신내역 3번출구 인근,37.617855,126.922524
ST-479,2.9944632001386955,서울특별시 은평구 역촌동 45-34역촌파출소,37.604736,126.915337
ST-1036,2.898477484188201,서울특별시 은평구 연서로 124,37.609802,126.916794
ST-462,2.692168164647677,서울특별시 은평구 응암동 610-3새절역 2번출구,37.590797,126.913651
ST-469,2.6430289783197205,서울특별시 은평구 진관동 242-14신도고등학교,37.630016,126.919029
ST-1490,2.634729457528139,서울특별시 은평구 진관4로 78-38 은평지웰 테라스,37.643394,126.932137
ST-2824,2.474674487003295,서울특별시 은평구 은평구 갈현로 301,37.623608,126.916885
ST-472,2.431624406583059,서울특별시 은평구 진관동 161-9메뚜기다리,37.628517,126.929581
ST-87,2.417023068126652,서울특별시 마포구 월드컵로 240홈플러스 월드컵경기장점,37.56842,126.899429
ST-1331,2.414914096890954,서울특별시 은평구 응암로 247 외환은행,37.594414,126.918015
ST-464,2.388083417146511,서울특별시 은평구 역촌동 15-40평생학습관 앞,37.607849,126.921326
ST-89,2.252160615928856,서울특별시 마포구 성산동 421-10,37.57048,126.898895
ST-480,2.251655748048348,서울특별시 은평구 연서로 117예일여중,37.610004,126.916397
ST-460,2.235792420192826,서울특별시 은평구 응암동 604-5응암오거리,37.589661,126.916946
ST-459,2.2216661191925517,서울특별시 은평구 녹번동 153-31은평평화공원(역촌역4번출구),37.605583,126.922935
ST-25,2.1591903665796806,서울특별시 서대문구 홍제동 277-23277-23,37.59433,126.947388
ST-2783,2.1475101866524926,서울특별시 은평구 통일로 885,37.622051,126.919586
ST-461,2.114613591787328,서울특별시 은평구 응암동 90-15이마트 은평점,37.6007,126.920128
ST-2245,2.006596766486705,서울특별시 은평구 진관동 148-31,37.633102,126.931503
ST-465,1.9860374141502928,서울특별시 은평구 응암동 15-1,37.600761,126.935371
ST-18,1.8995946756205533,서울특별시 마포구 동교동 192-44,37.557438,126.923821
ST-2241,1.8447775250375096,서울특별시 은평구 진관동 136-45,37.637348,126.935844
ST-35,1.840608753083374,서울특별시 서대문구 불광천길 150345-27,37.582031,126.908997
ST-344,1.83430403550005,서울특별시 마포구 하늘공원로 108-1월드컵공원,37.563965,126.898209
ST-2250,1.8130192763974966,서울특별시 은평구 녹번동 81-27,37.604126,126.925087
ST-3169,1.805256085659444,서울특별시 은평구 서오릉로 253 은평서해그랑블,37.61705,126.906586
ST-2257,1.7819794808215512,서울특별시 은평구 가좌로 255,37.591812,126.914833
ST-2242,1.7422241820658533,서울특별시 은평구 불광동 70-1,37.62672,126.929016
ST-2778,1.6442196341507416,서울특별시 은평구 통일로760,37.613262,126.927864
ST-33,1.6305115559107524,서울특별시 서대문구 증가로 264북가좌동354-4,37.584171,126.911102
ST-1029,1.60456041855424,서울특별시 녹번동 84은평구청 보건소,37.602402,126.92865
ST-2156,1.5882688122058033,서울특별시 마포구 합정동 473-2,37.551754,126.9123
ST-211,1.5870322917626172,서울특별시 마포구 망원동 477-23마포구청역,37.560909,126.905495
ST-2168,1.5487615673903063,서울특별시 마포구 동교동 155-6,37.558296,126.925385
ST-555,1.4998972533408306,서울특별시 서대문구 거북골로 34서대문구 거북골로 34,37.581097,126.924026
ST-2785,1.4988602988097137,서울특별시 은평구 은평로220,37.600346,126.93148
ST-1033,1.4637905927206343,서울특별시 불광동 484-165연신내 선일하이츠빌 정류소,37.622669,126.919991
ST-2979,1.4568399618911427,서울특별시 마포구 마포구 연남로 42 코오롱아파트사거리,37.563038,126.921433
ST-2781,1.4485436788768145,서울특별시 은평구 진관2로,37.633907,126.931778
ST-2160,1.4485345264601213,서울특별시 마포구 성산동 594,37.565044,126.903603
ST-2777,1.4244797048423679,서울특별시 은평구 응암로291,37.597504,126.919998
ST-2240,1.4127962804958443,서울특별시 용산구 이촌동 304-11,37.517319,126.958298
ST-350,1.3634938669968495,서울특별시 서대문구 불광천길 36증산교 앞,37.577316,126.902969
ST-20,1.3258999212671003,서울특별시 마포구 양화로18길 3192-5,37.55706,126.924423
ST-5,1.3188162136792212,서울특별시 마포구 월드컵로 79378-18,37.554951,126.910835
ST-938,1.2975481788057421,서울특별시 종로구 홍지문길 1상명대 입구,37.600128,126.957832
ST-2246,1.2266435868892598,서울특별시 은평구 통일로 602-1 지하철3호선 녹번역,37.601009,126.935928
ST-4,1.214461970272248,서울특별시 마포구 월드컵로 72475-54,37.555649,126.910629
ST-85,1.2111165656438667,서울특별시 마포구 월드컵북로47길 101,37.566246,126.896179
ST-2252,1.1929243747092655,서울특별시 은평구 가좌로 316 상신교회,37.59581,126.910263
ST-342,1.179397993621276,서울특별시 마포구 월드컵로 119SK망원동주유소 건너편,37.558949,126.907753
ST-2536,1.1781664787018702,서울특별시 마포구 마포구 성산동 275-26,37.564156,126.90815
ST-473,1.168056295740163,서울특별시 은평구 불광동 285-43불광역 2번출구,37.609566,126.930977
ST-426,1.1655210854058347,서울특별시 영등포구 당산로52길 3당산육갑문,37.535339,126.903679
ST-2213,1.1544298473654693,서울특별시 서대문구 홍은동 274-18,37.581318,126.935997
ST-1032,1.140854643036275,서울특별시 불광로 129독바위역,37.618439,126.932884
ST-3095,1.0906330188434092,서울특별시 은평구 수색로 194,37.578907,126.901299
ST-1484,1.07885235793205,서울특별시 은평구 불광로 90대호프라자아파트,37.614429,126.932579
ST-1491,1.0737986736973026,서울특별시 서대문구 통일로 지하 440-1홍제삼거리 북측,37.5867,126.94677
ST-2031,1.0725935392414239,서울특별시 강서구 마곡중앙5로 2 마곡나루역(9호선),37.566925,126.827438
ST-2775,1.0538920241443328,서울특별시 은평구 은평로127,37.600494,126.922157
ST-2825,1.0530980979546953,서울특별시 은평구 은평구 응암로 278 맞은편(응암동 767-1 공원 앞),37.596127,126.919624
ST-463,1.0176042358072281,서울특별시 은평구 증산동 199-8증산역 4번출구,37.584381,126.909897
ST-8,1.0067530862512644,서울특별시 마포구 독막로 4381-1,37.548645,126.912827
ST-1619,0.9763380644591856,서울특별시 종로구 사직로8길 31서울지방경찰청,37.574364,126.972366
ST-1482,0.9663273944909715,서울특별시 은평구 통일로 732불광역 9번 출구,37.61097,126.92981
ST-1479,0.9556343867656729,서울특별시 은평구 은평로 136신한은행 응암동 지점 앞,37.600361,126.922813
ST-2206,0.9070971236962124,서울특별시 서대문구 북가좌동 487-1,37.570652,126.912987
ST-2216,0.8910190540036698,서울특별시 서대문구 남가좌동 385-7,37.572159,126.921188
ST-2157,0.8829599166546017,서울특별시 마포구 성미산로29길 17-3 은행나무어린이공원 화장실,37.564651,126.922127
ST-339,0.866352938613902,서울특별시 마포구 마포나루길 467망원초록길 입구,37.551342,126.902672
ST-202,0.8637860664225996,서울특별시 마포구 공덕동 438-5공덕역 8번출구,37.543579,126.951324
ST-349,0.8547340211822306,서울특별시 서대문구 북가좌동 352-9증산3교 앞,37.579876,126.906349
ST-1025,0.8362721858475438,서울특별시 응암동 82-31은평구청 교차로,37.6017,126.927422
ST-347,0.8223969940625961,서울특별시 서대문구 응암로 66정명학원,37.578892,126.910736
ST-478,0.8213626403608923,서울특별시 은평구 역촌동 41-7구 서부경찰서 건너편,37.601662,126.920303
ST-204,0.8102620450005935,서울특별시 마포구 도화동 555-2마포역 1번출구 뒤,37.539936,126.945824
ST-3279,0.7853501839230833,서울특별시 은평구 은평터널로 15,37.583694,126.894127
ST-351,0.7833313384771395,서울특별시 서대문구 연희동 446-76모래내고가차도,37.567657,126.917809
ST-341,0.7764268838330667,서울특별시 마포구 연남동 365-19,37.565388,126.919327
ST-2470,0.775940046271899,서울특별시 은평구 불광로 41 LG Bestshop 불광점,37.611568,126.930489
ST-3113,0.7744233602790781,서울특별시 서대문구 남가좌동 318-20,37.576019,126.926834
ST-94,0.7736240340938668,서울특별시 마포구 매봉산로2길 16상암동주민센터 옆,37.57822,126.89447
ST-2253,0.7731950160666515,서울특별시 은평구 은평로 170 상현빌딩,37.601192,126.926384
ST-223,0.7693990834835782,서울특별시 서대문구 남가좌동 385-16,37.573818,126.919235
ST-83,0.7655724161776685,서울특별시 마포구 상암산로1길 71마포구 육아보육정보센터 앞,37.580631,126.883675
ST-95,0.7615787244301242,서울특별시 마포구 성암로 지하184디지털미디어시티역 9번출구 앞,37.577469,126.897362
ST-3272,0.7481680103397564,서울특별시 마포구 성중길 82,37.57402,126.901024
ST-2147,0.7367344817748942,서울특별시 마포구 월드컵북로 494 푸르메재단넥슨어린이재활병원,37.584568,126.880211
ST-231,0.7353516845689523,서울특별시 서대문구 모래내로 286 홍은2공중화장실,37.578068,126.930885
ST-82,0.7328242307161791,서울특별시 마포구 월드컵로 212 마포구청,37.565746,126.901863
ST-210,0.7324937400640757,서울특별시 마포구 성산동 54-17성산2교 사거리,37.564697,126.912613
ST-2167,0.7311616962765267,서울특별시 마포구 월드컵북로 9-1,37.55584,126.920433
ST-1485,0.729624849002662,서울특별시 은평구 통일로 796 북한산 힐스테이트7차,37.616543,126.925125
ST-2208,0.7249623818034988,서울특별시 서대문구 남가좌동 385-13,37.572254,126.9151
ST-205,0.7240947474123012,서울특별시 마포구 도화동 292-29마포역 4번출구 뒤,37.539272,126.945915
ST-73,0.7188655592200395,서울특별시 영등포구 여의동로 지하343여의나루역 1번출구 앞,37.527157,126.9319
ST-3139,0.7149845043913514,서울특별시 서대문구 연희동 735,37.57914,126.934509
ST-2205,0.712849016885143,서울특별시 서대문구 남가좌동 105-4,37.569836,126.918091
ST-2177,0.7057798690819981,서울특별시 용산구 한강로2가 408-5,37.528488,126.965843
ST-2956,0.7015094646015917,서울특별시 은평구 응암동 159-3,37.599545,126.926537
ST-2210,0.6945735012894897,서울특별시 서대문구 연희동 747-3,37.575642,126.927826
ST-6,0.6912782640036867,서울특별시 마포구 양화로 61 두암빌딩,37.550739,126.915085
ST-2146,0.6824263158511223,서울특별시 마포구 용강동 494-6,37.54364,126.938309
ST-32,0.6779758352624367,서울특별시 마포구 신촌로 9431-123,37.554859,126.936157
ST-2974,0.6736964797506408,서울특별시 마포구 MBC본사와 디지털매직스페이스 건물 사이 횡단보도 2개 중간,37.5812,126.88958
ST-470,0.6728080102746729,서울특별시 은평구 대조동 227-2연신내역 4번출구,37.617802,126.921967
ST-110,0.6686448700529595,서울특별시 마포구 구룡길 19상암한화오벨리스크 1차 앞,37.587524,126.883003
ST-2212,0.6664879812936991,서울특별시 서대문구 홍은동 424-1,37.583336,126.936287
ST-2204,0.6654392201368576,서울특별시 서대문구 연희로 78 SK삼보주유소,37.565197,126.929855
ST-2897,0.6634247481614926,서울특별시 서대문구 남가좌동 384-3,37.575043,126.917366
ST-206,0.6588768532205566,서울특별시 마포구 용강동 234-1용강동 주민센터 앞,37.542347,126.943024
ST-2425,0.6576373723092178,서울특별시 은평구 신사동 371-1,37.599316,126.907593
ST-443,0.6556942482610226,서울특별시 마포구 성산동 515서울 월드컵 경기장,37.566845,126.896446
ST-93,0.6542308605619269,서울특별시 은평구 수색로 지하175디지털미디어시티역 2번출구 앞,37.575069,126.899918
ST-1692,0.6495777133138929,서울특별시 마포구 모래내로 31성산2-1 공영주차장,37.56472,126.906769
ST-968,0.6398280175702256,서울특별시 마포구 성산동 661,37.568977,126.894402
ST-2530,0.638696783760899,서울특별시 마포구 마포구 창전동 246-34,37.547379,126.931633
ST-2776,0.63567091193514,서울특별시 은평구 통일로,37.601768,126.935425
ST-3239,0.6331157927459012,서울특별시 영등포구 여의대로 128,37.528347,126.930084
ST-2533,0.6326959875858337,서울특별시 마포구 마포구 중동 275,37.569492,126.911842
ST-9,0.6316220400535686,서울특별시 마포구 월드컵북로 35449-28,37.55751,126.918503
ST-340,0.6259215788219055,서울특별시 마포구 합정동 450-47,37.551365,126.903061
ST-3114,0.6226805645013539,서울특별시 서대문구 홍은동 387-61,37.577168,126.929062
ST-1754,0.615002134257559,서울특별시 마포구 하늘공원로 108,37.570122,126.881348
ST-21,0.6095847416473475,서울특별시 마포구 구수동 68-18,37.545208,126.931465
ST-232,0.6082302976391041,서울특별시 서대문구 수색로 27 가좌역,37.568775,126.915298
ST-3017,0.6005011542225704,서울특별시 마포구 서울 마포구 합정동 50-15,37.545296,126.917648
ST-10,0.597094417024956,서울특별시 마포구 양화로 93427,37.552746,126.918617
ST-1397,0.5966477633854376,서울특별시 마포구 월드컵북로 260성산시영아파트,37.569584,126.903816
ST-2152,0.5856400808421005,서울특별시 마포구 동교동 190-66,37.556576,126.928856
ST-222,0.5843337007636251,서울특별시 서대문구 북가좌동 470-1모래내 우체국,37.575138,126.91394
ST-15,0.5797940854421567,서울특별시 마포구 와우산로 40309-10,37.547871,126.923531
ST-1488,0.5759902887274344,서울특별시 은평구 통일로 684 서울혁신파크,37.608498,126.931999
ST-1034,0.5672888512251604,서울특별시 증산동 239디지털미디어 시티역 4번출구,37.577202,126.902351
ST-2975,0.5652290323660434,서울특별시 마포구 마포구 창전동15-1,37.549854,126.932037
ST-1190,0.5612694960758522,서울특별시 서대문구 연희로 113,37.567997,126.931656
ST-1910,0.5587623158443479,서울특별시 서초구 신반포로 165 반포쇼핑타운,37.505608,127.002159
ST-3008,0.5533482709887975,서울특별시 마포구 마포구 염리동 160-68,37.545685,126.94677
ST-366,0.5490389517245461,서울특별시 성동구 옥수동 192-2,37.541367,127.017761
ST-2195,0.5477980266677921,서울특별시 서대문구 연희로41길 4 현대상가,37.589283,126.936943
ST-16,0.5371606977184118,서울특별시 마포구 와우산로 5689-2,37.549202,126.923203
ST-2977,0.5332052248242892,서울특별시 마포구 서울 마포구 월드컵로42길 13,37.578922,126.882164
ST-346,0.5269799911090887,서울특별시 서대문구 연희로37안길 51홍은동 정원여중 입구,37.586388,126.935127
ST-86,0.5216634211162718,서울특별시 마포구 월드컵북로 396누리꿈스퀘어 옆,37.579399,126.88916
ST-1487,0.5037902061221831,서울특별시 은평구 녹번동 7-4,37.609447,126.934677
ST-3033,0.4994346081647172,서울특별시 서대문구 홍은동 387-61,37.576756,126.928276
ST-2247,0.48800941469302117,서울특별시 은평구 신사동 178-9,37.591862,126.906082
ST-227,0.4866280624593438,서울특별시 서대문구 남가좌동 124가재울 뉴타운 주유소 옆,37.573112,126.922447
ST-343,0.473891840535043,서울특별시 마포구 현석동 106-32마포 신수공원 앞,37.542545,126.934296
ST-297,0.4688961184020565,서울특별시 영등포구 여의동로 300-2 가로판매대50,37.524349,126.936119
ST-683,0.46404090221025646,서울특별시 동작구 노량진로 지하 238동작구 본동 344-10,37.512844,126.952469
ST-2150,0.45690361878394786,서울특별시 마포구 상암동 1761,37.575977,126.888069
ST-2164,0.45342853680281914,서울특별시 마포구 상암동 1727,37.5793,126.887314
ST-2045,0.44554553972664657,서울특별시 강서구 마곡동로 115,37.565804,126.828079
ST-345,0.44315930554315414,서울특별시 서대문구 북가좌동 427-1,37.577637,126.909653
ST-3140,0.4423359905687753,서울특별시 서대문구 연세로5나길 19 신촌. 파랑고래,37.556877,126.936035
ST-207,0.44112067965156787,서울특별시 마포구 노고산동 112-13서강대역 2번출구 앞,37.552956,126.934341
ST-1344,0.43699260956570124,서울특별시 용산구 한남동 557-106,37.528988,127.006622
ST-47,0.43602992815269404,서울특별시 영등포구 여의공원로 101101,37.528816,126.92453
ST-2149,0.43587752885278064,서울특별시 마포구 상암동 1594,37.582077,126.887665
ST-77,0.4320053362996211,서울특별시 마포구 상암동 1748-1,37.582928,126.879837
ST-212,0.4252807277435197,서울특별시 마포구 성암로 28 가좌행복주택,37.568295,126.915047
ST-3062,0.4239884676568305,서울특별시 서대문구 연희동 222-1,37.563557,126.928276
ST-442,0.4231112377164537,서울특별시 용산구 서빙고로 279서빙고동 주민센터 앞,37.520336,126.994263
ST-2165,0.4228127594589472,서울특별시 마포구 상암동 1695,37.581982,126.89045
ST-3125,0.416673322649242,서울특별시 강서구 공항대로 543 센터스퀘어,37.550648,126.866165
ST-26,0.41064700192049025,서울특별시 마포구 서강로16길 7284-5,37.55114,126.936989
ST-201,0.40997239153667414,서울특별시 마포구 공덕동 257-88공덕역 2번출구,37.544579,126.950218
ST-90,0.40866363001773953,서울특별시 마포구 월드컵북로 366DMC홍보관,37.577995,126.891472
ST-91,0.4059242395350834,서울특별시 마포구 상암동 1718,37.575657,126.890793
ST-2154,0.40449141431970664,서울특별시 마포구 토정로37길 46 정우빌딩,37.542431,126.946999
ST-992,0.40262462086952816,서울특별시 마포구 마포대로 163서울신용보증재단,37.549061,126.954178
ST-7,0.4019845610258585,서울특별시 마포구 양화로 48394-95,37.550007,126.914825
ST-92,0.4017793359678038,서울특별시 마포구 매봉산로 8상암월드컵파크 3단지 후문,37.571476,126.889687
ST-3072,0.39651753968355596,서울특별시 영등포구 여의대로 70 신한금융투자타워여의대로 70,37.525089,126.92408
ST-2450,0.3949161228742316,서울특별시 용산구 한강대로 26,37.523018,126.96241
ST-3019,0.39215329476739974,서울특별시 마포구 서울 마포구 독막로 8,37.547588,126.924644
ST-692,0.38990569496403993,서울특별시 동작구 현충로 지하 90동작구 흑석동 2-28,37.50938,126.963615
ST-2535,0.3833896768025152,서울특별시 마포구 마포구 상암동 1758,37.583321,126.881561
ST-220,0.38323969242737277,서울특별시 서대문구 홍은동 산25-3명지전문대학교 정문 앞,37.583698,126.924965
ST-2815,0.3831673486704874,서울특별시 영등포구 영등포구 영등포4가 442-6,37.518036,126.903648
ST-2779,0.3829124119378345,서울특별시 은평구 은평로85 CJ드림시티 A동,37.59967,126.91716
ST-2332,0.38235864387532925,서울특별시 성동구 금호로 15 서울숲푸르지오아파트,37.544041,127.023201
ST-277,0.37165184774800664,서울특별시 영등포구 양화동 17-4양평2나들목 보행통로 입구,37.544666,126.888359
ST-76,0.369488886343827,서울특별시 마포구 월드컵북로 502-36상암월드컵파크 10단지 앞,37.586189,126.881615
ST-750,0.369191134009678,서울특별시 서초구 신반포로 지하 188서초구 잠원동 101,37.506199,127.003944
ST-2557,0.36713381419127167,서울특별시 강서구 강서구 화곡로 347,37.555107,126.851547
ST-348,0.3670495315678223,서울특별시 서대문구 연희동 519-7연서어린이공원,37.572227,126.923065
ST-2217,0.36320373719631643,서울특별시 서대문구 홍제동 295-33,37.591862,126.944214
ST-221,0.3603216657103502,서울특별시 서대문구 북가좌동 477-1북가좌1동 주민센터,37.574478,126.910049
ST-81,0.3550627612268854,서울특별시 마포구 월드컵로42길 22,37.581112,126.880875
ST-2207,0.35440307246157626,서울특별시 서대문구 북가좌동 474-2,37.574284,126.906464
ST-1486,0.3490602642374317,서울특별시 은평구 백련산로 90서울특별시 은평병원,37.593479,126.923187
ST-28,0.34695897483762445,서울특별시 마포구 대흥로 12238-16,37.550411,126.943848
ST-295,0.34472789189489644,서울특별시 영등포구 당산로 222 당산디오빌,37.533421,126.902237
ST-55,0.3435669325739745,서울특별시 영등포구 국제금융로 2424-3,37.524612,126.927834
ST-2534,0.34250324124733644,서울특별시 마포구 마포구 합정동 412-34,37.548302,126.916718
ST-3130,0.34200922398467404,서울특별시 마포구 대흥로20길 28 마포아트센터,37.550343,126.945801
ST-99,0.34121371883830925,서울특별시 광진구 능동로 10뚝섬유원지역 1번출구 앞,37.53186,127.067192
ST-2518,0.3400036071681408,서울특별시 중구 태평로1가 60-20,37.567017,126.976837
ST-296,0.33942498646388536,서울특별시 영등포구 여의도동8-13초원아파트 앞,37.531055,126.92421
ST-96,0.33696027640253984,서울특별시 마포구 월드컵북로 502-7상암월드컵파크 1단지,37.575665,126.894447
ST-1827,0.33346188087228945,서울특별시 종로구 비봉길 12,37.609501,126.95668
ST-3160,0.3293831261588736,서울특별시 영등포구 국제금융로7길 27 삼부아파트,37.525394,126.930458
ST-2469,0.3284731238817099,서울특별시 용산구 한강로1가 1-1,37.539322,126.97319
ST-1065,0.3249267335089608,서울특별시 강서구 마곡동 797-5,37.558949,126.837173
ST-3127,0.3229196066894285,서울특별시 은평구 역촌동 233-1,37.603542,126.906723
ST-2874,0.31571714463258704,서울특별시 마포구 마포구 합정동454-23,37.550068,126.9048
ST-2037,0.31541892400570853,서울특별시 강서구 마곡동 727-1243,37.563206,126.839363
ST-2561,0.31421141841611133,서울특별시 서대문구 서대문구 홍은동 11-7,37.601696,126.949165
ST-2537,0.31288452576854,서울특별시 마포구 상암산로 48-6 중앙일보빌딩,37.577305,126.890183
ST-203,0.3125829402502968,서울특별시 마포구 공덕동 237-9공덕역 5번출구,37.54425,126.951637
ST-702,0.3017929708632113,서울특별시 관악구 신림동 1467-13,37.484085,126.926888
ST-278,0.3013598522057173,서울특별시 영등포구 양평동4가 202-1선유도역 3번출구 앞,37.53846,126.894508
ST-448,0.30072254485272765,서울특별시 은평구 녹번동 85-4은평예술회관,37.603943,126.927696
ST-23,0.2999168803243814,서울특별시 마포구 창전로 76100-18,37.549767,126.933174
ST-1691,0.298295465500816,서울특별시 마포구 대흥동 105-4,37.54847,126.940926
ST-37,0.2950522054653207,서울특별시 서대문구 명물길 65,37.559227,126.939842
ST-1341,0.29122452197611004,서울특별시 용산구 백범로 지하 287효창공원앞역 3번출구 뒤,37.539009,126.96138
ST-3244,0.2892650987419224,서울특별시 마포구 월드컵북로38길 53 월드컵참누리아파트,37.572124,126.905975
ST-1343,0.2876825517506503,서울특별시 용산구 원효로 74현대자동차서비스 앞,37.531422,126.9515
ST-1326,0.2859813343029537,서울특별시 용산구 한강대로 23베르가모앞,37.52293,126.961693
ST-12,0.2854561011548812,서울특별시 서대문구 연희로 6516,37.558933,126.927116
ST-413,0.2844219444313261,서울특별시 영등포구 당산로 111-2영등포구청역 1번출구,37.524635,126.896217
ST-376,0.28353157326649375,서울특별시 성동구 마장로39길 51청계천 생태교실 앞,37.56797,127.04689
ST-30,0.28197929976719666,서울특별시 서대문구 연세로 3-530-16,37.555496,126.93634
ST-3142,0.27667271487757794,서울특별시 영등포구 경인로 846 영등포 민자역사,37.516693,126.908073
ST-3083,0.2753244464517896,서울특별시 용산구 용산동6가 69-170,37.517941,126.983704
ST-1150,0.27384836844066773,서울특별시 동작구 노량진동 113-7노량진동 맥도널드앞,37.513523,126.943527
ST-2262,0.2729436138931179,서울특별시 은평구 불광동 2-1,37.610508,126.938538
ST-1493,0.27163158468368287,서울특별시 서대문구 통일로 553홍은센트레빌 아파트 앞,37.597149,126.93853
ST-1251,0.27117861345878963,서울특별시 강서구 양천로 지하 341양천향교역 7번출구 앞,37.56768,126.840897
ST-84,0.2711090168927987,서울특별시 마포구 월드컵북로 424LG CNS앞,37.580811,126.88665
ST-124,0.2671891932480514,서울특별시 종로구 새문안로 82광화문S타워 앞,37.569969,126.973938
ST-39,0.26139592013720464,서울특별시 서대문구 연세로2다길 5860-11,37.556812,126.943184
ST-1443,0.26010654218533275,서울특별시 용산구 한강대로 100신용산역 1번 출구,37.52961,126.968872
ST-24,0.25831928984726643,서울특별시 마포구 독막로 223-150-2,37.547459,126.938377
ST-748,0.25780752465361684,서울특별시 서초구 신반포로 지하 105서초구 반포동 128-1,37.504116,126.99749
ST-2188,0.255865433171148,서울특별시 용산구 한남동 704-11,37.535141,127.006004
ST-2184,0.25156005083521077,서울특별시 용산구 이촌동 429,37.520748,126.970825
ST-2042,0.2514491469415288,서울특별시 강서구 마곡동로 161 서울식물원,37.568836,126.835632
ST-214,0.25131598046017367,서울특별시 마포구 아현동 607-1애오개역 4번출구 앞,37.553001,126.956688
ST-130,0.2496845973012145,서울특별시 종로구 삼청로 30국립현대미술관 서울관,37.579708,126.980858
ST-42,0.24945327819773563,서울특별시 서대문구 연세로 5027,37.562382,126.932648
ST-2981,0.24875452600300174,서울특별시 마포구 서울시 마포구 성암로 179,37.576492,126.898674
ST-1674,0.2482383887573968,서울특별시 은평구 갈현로3나길 23역촌 센트레빌 아파트 107동 인근,37.602329,126.906548
ST-935,0.24720969133619086,서울특별시 서초구 동작대로 138 소방빌딩,37.488972,126.982719
ST-2166,0.2469101130336287,서울특별시 마포구 상암동 1133,37.577114,126.898361
ST-3020,0.24607405817307862,서울특별시 마포구 서울서부지방법원등기국앞,37.551849,126.954781
ST-2990,0.24581536232794915,서울특별시 서대문구 서대문구 연희동 150-11,37.575401,126.93544
ST-3105,0.24496326663006435,서울특별시 동작구 보라매로5길 20 서울특별시보라매병원,37.493221,126.923431
ST-36,0.2435132061698683,서울특별시 서대문구 명물길 3331-69,37.557892,126.93808
ST-1339,0.24348412702283953,서울특별시 용산구 이촌로71길 24이촌1동 주민센터 뒤,37.521282,126.973465
ST-932,0.24213145616393555,서울특별시 동작구 현충로 지하 90동작구 현충로 104,37.508587,126.963493
ST-2215,0.23995383974988793,서울특별시 서대문구 남가좌동 385-16,37.574551,126.918266
ST-226,0.2359451567672719,서울특별시 서대문구 북가좌동 400북가좌 삼거리,37.573002,126.907799
ST-2528,0.23581372775928014,서울특별시 마포구 마포구 마포대로 122,37.545853,126.952599
ST-522,0.23563870569808804,서울특별시 강서구 내발산동 645,37.558178,126.838455
ST-990,0.22825513769827396,서울특별시 상암동 1715-29롯데하이마트 (상암월드컵점),37.57362,126.898048
ST-2214,0.22582714856906905,서울특별시 서대문구 수색로 100 DMC래미안e편한세상,37.576263,126.911324
ST-699,0.22464189265070664,서울특별시 동작구 노량진로 지하 130노량진동 60-11,37.513248,126.939972
ST-307,0.22366372024589729,서울특별시 영등포구 신길동1368대방역6번출구,37.513592,126.925934
ST-1317,0.22075152903469347,서울특별시 성북구 종암로 지하 1고려대학교 2번출구,37.590714,127.036194
ST-2491,0.21813573430398805,서울특별시 강서구 양천로47길 112,37.575317,126.83667
ST-1446,0.21795776820924648,서울특별시 용산구 이촌로14길 7이촌2동 동원베네스트 아파트 앞,37.527149,126.955162
ST-40,0.21724164544293725,서울특별시 서대문구 증가로 264342-14,37.559177,126.934525
ST-2531,0.2168649094024951,서울특별시 마포구 마포구 서교동 445-7,37.557308,126.918854
ST-2827,0.21480165184774058,서울특별시 동작구 매봉로 34,37.504444,126.950256
ST-2494,0.2127157242406564,서울특별시 강서구 강서구 염창동 223-4번지,37.556805,126.871559
ST-3021,0.2097804462897331,서울특별시 마포구 신촌로 134,37.556011,126.940346
ST-1195,0.20859537305195439,서울특별시 성동구 고산자로 123응봉동 3-10,37.55125,127.035103
ST-118,0.20818886771977793,서울특별시 종로구 사직로 지하130경복궁역 4번출구 뒤,37.575947,126.97406
ST-664,0.20737544856965795,서울특별시 구로구 경인로 688구로구 신도림동 348-1,37.50972,126.890099
ST-22,0.20645786539894095,서울특별시 마포구 토정로 211371-11,37.545242,126.934113
ST-1351,0.2054080588625005,서울특별시 강서구 강서로62길 48강서구립등빛도서관,37.562569,126.842461
ST-2350,0.20201379208065065,서울특별시 동작구 노량진로 250,37.511936,126.954163
ST-457,0.2014284694300623,서울특별시 은평구 응암동 761-9백련산 힐스테이트 3차,37.586994,126.922882
ST-2688,0.20042284965337775,서울특별시 강남구 압구정동 507,37.53075,127.041603
ST-1971,0.19981154571721096,서울특별시 영등포구 여의서로 60-2 가로판매대22,37.531792,126.922455
ST-2153,0.19729080850439604,서울특별시 마포구 독막로 192 신수동주민센터,37.547245,126.935028
ST-435,0.19728557097596286,서울특별시 용산구 한강대로 115신용산역 6번출구 앞,37.530148,126.968483
ST-421,0.1958628553922106,서울특별시 영등포구 양평로 76삼성화재 사옥 옆,37.535961,126.8983
ST-218,0.1946293738139757,서울특별시 서대문구 통일로 380-4무악재역1번 출구,37.582245,126.950645
ST-438,0.193951554937516,서울특별시 용산구 원효로97길 33-4선린인터넷 고등학교,37.541653,126.970505
ST-326,0.19362756992845417,서울특별시 용산구 문배동 34-10문배어린이공원 앞,37.536758,126.970001
ST-1441,0.1933902321058853,서울특별시 용산구 보광로5길 40보광동 삼성리버빌아파트 앞,37.52401,127.00145
ST-520,0.19314398792745127,서울특별시 강서구 허준로 221-40 공원관리사무실,37.561924,126.864166
ST-1611,0.19308819968550942,서울특별시 종로구 세종대로 152 일민미술관,37.569893,126.97757
ST-446,0.19271842714295198,서울특별시 성동구 성수동2가 569-3성수2가1동 공영주차장 인근,37.536808,127.055489
ST-52,0.18975607346618284,서울특별시 영등포구 의사당대로 9797,37.526264,126.920509
ST-2148,0.18848223154927618,서울특별시 마포구 월드컵북로 456,37.583202,126.882767
ST-3094,0.18833632823475518,서울특별시 강서구 화곡로 416 가양역 더스카이밸리5차 지식산업센터,37.560196,126.854912
ST-513,0.18813141063881358,서울특별시 강서구 마곡서로 175강서구 마곡동 754-6,37.568577,126.824776
ST-3076,0.18800436902509002,서울특별시 은평구 응암동 225-72,37.595867,126.923492
ST-1002,0.1878867752136026,서울특별시 양천구 목동동로 316-6서울시 도로환경관리센터,37.5299,126.876541
ST-1718,0.18667685816610452,서울특별시 강서구 마곡중앙5로 지하 2마곡나루역(공항철도) 5번출구 뒤편,37.565201,126.827316
ST-437,0.18554080154665753,서울특별시 용산구 청파로47길 100숙명여대 입구 교차로,37.544895,126.969383
ST-88,0.18510583630258456,서울특별시 마포구 상암동 1691,37.577393,126.887474
ST-80,0.18449238503417004,서울특별시 마포구 월드컵북로60길 13DMC빌 앞,37.582657,126.885788
ST-1689,0.1840057718449243,서울특별시 강서구 마곡중앙로 76힐스테이트에코마곡역,37.560242,126.827164
ST-946,0.18398599159986834,서울특별시 중구 퇴계로 33서울역 서부교차로2,37.555367,126.968643
ST-2487,0.18374079578557648,서울특별시 강서구 공항대로45길68-6,37.557552,126.856255
ST-919,0.18363501365291263,서울특별시 구로구 경인로 445구로구 고척동 63-3,37.499889,126.867699
ST-2006,0.1830649573516725,서울특별시 양천구 안양천로 812 공중화장실,37.517338,126.877647
ST-1223,0.1822393853805098,서울특별시 구로구 구로동 3-42,37.508183,126.891335
ST-1189,0.1816801668704836,서울특별시 서대문구 연희로 242서대문구청,37.578381,126.936096
ST-1823,0.18166540990395388,서울특별시 종로구 무악동 32-3,37.575016,126.95755
ST-51,0.18116233005100602,서울특별시 영등포구 국회대로 지하758758,37.528057,126.918701
ST-2024,0.1802398620154388,서울특별시 강서구 가양동 18-23,37.564682,126.848907
ST-1828,0.1764867846614829,서울특별시 종로구 구기동 110-22,37.607601,126.957687
ST-1376,0.17509997107720202,서울특별시 용산구 한강대로 지하 306숙대입구역 4번출구,37.54446,126.972389
ST-2532,0.1746998258276209,서울특별시 마포구 마포구 동교동 205-6,37.55666,126.919868
ST-923,0.17388059422137442,서울특별시 동작구 사당로 지하 310동작구 사당동 144-4,37.485508,126.981621
ST-1249,0.17364746426725305,서울특별시 강서구 양천로 지하 485가양역 8번출구,37.561035,126.854813
ST-19,0.17306587883256622,서울특별시 마포구 독막로 지하165243-3,37.547733,126.931763
ST-3051,0.1726474941707701,서울특별시 서대문구 충정로2가 8-3,37.56599,126.966072
ST-219,0.1726428097726357,서울특별시 서대문구 대신동 143-1,37.566261,126.946671
ST-831,0.1720106648171485,서울특별시 강서구 방화동 829-11,37.577106,126.811996
ST-213,0.1702483694195944,서울특별시 마포구 공덕동 105-259,37.549332,126.954918
ST-292,0.17003633657175393,서울특별시 영등포구 양평동3가 48-1이앤씨드림타워 앞,37.527084,126.89138
ST-668,0.16991163218281286,서울특별시 구로구 시흥대로 577-2구로구 구로동 1119,37.48494,126.901321
ST-753,0.16982496875224087,서울특별시 동작구 동작대로 지하 3서초구 방배동 495-3,37.478069,126.982033
ST-1506,0.16922415287134412,서울특별시 강서구 공항대로 625염창역 1번 출구,37.547199,126.874489
ST-1923,0.1678921531620365,서울특별시 서초구 잠원로14길 10,37.520267,127.015251
ST-3082,0.16742075980492632,서울특별시 용산구 청파로 312,37.547337,126.970383
ST-200,0.1673404371474783,서울특별시 마포구 아현동 329-15아현역 4번출구 앞,37.557201,126.955666
ST-977,0.16726392812533833,서울특별시 중구 덕수궁길 61 서울시립미술관,37.565052,126.973404
ST-1990,0.16678300470568103,서울특별시 영등포구 영등포동 618-9,37.514847,126.90773
ST-1492,0.16660018628495435,서울특별시 마포구 신촌로 지하 270e편한세상 신촌4단지 앞,37.558128,126.956207
ST-1701,0.16658332209502957,서울특별시 영등포구 버드나루로 125충북 미래관,37.529171,126.907578
ST-2924,0.16620149105994916,서울특별시 용산구 한강로2가 220-4,37.527035,126.966179
ST-3086,0.16513568823070376,서울특별시 서초구 방배중앙로 207-10 아크로리버,37.498173,126.984482
ST-1539,0.16499039377580998,서울특별시 영등포구 선유로 213선유중학교 정문,37.532101,126.89444
ST-31,0.16499030516402002,서울특별시 마포구 신촌로 10631-123,37.555054,126.937569
ST-327,0.1648367278047916,서울특별시 용산구 한강로3가 16-8전자랜드 본관 앞,37.533066,126.960732
ST-1352,0.16482880103854533,서울특별시 강서구 내발산동 751-3,37.553509,126.825867
ST-334,0.16452139966596885,서울특별시 용산구 한강로1가 228-1삼각지역 3번출구,37.533512,126.972275
ST-2456,0.16448380216961747,서울특별시 용산구 한강대로 52-1,37.52544,126.9646
ST-331,0.16383107320630041,서울특별시 용산구 용산동2가 5-1812이태원지하보도,37.53841,126.986649
ST-2201,0.1614711522409432,서울특별시 서대문구 신촌로 103-2,37.555504,126.937202
ST-2196,0.16110212420229475,서울특별시 서대문구 통일로 357 무악재한화아파트,37.582211,126.950165
ST-3187,0.1597616392987397,서울특별시 영등포구 당산로 220-2 구두수선대50,37.53363,126.901459
ST-2033,0.15923038491293684,서울특별시 강서구 마곡중앙8로 71 엘지사이언스파크,37.561337,126.8339
ST-1064,0.15751589705931185,서울특별시 강서구 마곡동 728-168마곡역7번출구,37.558311,126.826523
ST-2029,0.15711998656663287,서울특별시 강서구 화곡동 19-2,37.548534,126.846672
ST-1321,0.15690200844207047,서울특별시 영등포구 경인로112길 1SK영등포주유소,37.518284,126.912636
ST-2020,0.15678526588097033,서울특별시 강서구 화곡로 398 홈플러스강서점앤본사사옥,37.558521,126.854012
ST-198,0.1549786282717383,서울특별시 중구 신당동 99신당역 5번 출구,37.565849,127.016403
ST-2814,0.15463567670155834,서울특별시 영등포구 63로 33-2 가로판매대56,37.52071,126.939659
ST-777,0.15408567171496798,서울특별시 강남구 압구정로 134현대고등학교 건너편,37.524071,127.02179
ST-728,0.1535393382682299,서울특별시 동작구 상도로 지하 76동작구 상도동 329-2,37.499855,126.929565
ST-43,0.15331574318854174,서울특별시 서대문구 창천동 84-16,37.559864,126.934418
ST-285,0.15275477687418268,서울특별시 영등포구 문래동3가 68-1문래동자이아파트 앞,37.516155,126.894615
ST-3235,0.1515374505466765,서울특별시 영등포구 버드나루로 15,37.520241,126.912453
ST-1986,0.150955092056537,서울특별시 영등포구 당산동 121-317,37.529743,126.907829
ST-3226,0.15085212374562793,서울특별시 강서구 강서로56길 49 원당공원화장실,37.559475,126.841476
ST-3238,0.1499129681415076,서울특별시 영등포구 영등포로 244 로프트시티,37.519062,126.908394
ST-2040,0.14965842313574043,서울특별시 강서구 마곡동 789-10,37.560894,126.836693
ST-1545,0.1494806511296465,서울특별시 동작구 노량진로 155노량진역 2번 출구 앞,37.51392,126.943069
ST-289,0.14929787545426076,서울특별시 영등포구 문래동3가 55-12문래역 4번출구 앞,37.518738,126.895576
ST-2553,0.14916662257200347,서울특별시 강서구 염창동 119,37.551952,126.876709
ST-167,0.1489399558091153,서울특별시 종로구 청운동 108-25,37.584969,126.970413
ST-1649,0.14789659111504966,서울특별시 영등포구 양산로 213아크로타워 스퀘어(영등포시장),37.522518,126.907219
ST-53,0.14730440917395302,서울특별시 영등포구 여의공원로 1313,37.524666,126.918022
ST-64,0.14648675898152153,서울특별시 영등포구 국제금융로7길 37여의도고등학교 앞,37.524837,126.934906
ST-2438,0.1462841987841782,서울특별시 용산구 이촌동 303-15,37.51759,126.959221
ST-835,0.14545457355617003,서울특별시 강서구 강서로 304강서구 내발산동 724-42,37.552914,126.836571
ST-3135,0.1454290019314299,서울특별시 용산구 원효로53길 4,37.535778,126.962212
ST-1973,0.14489407870827395,서울특별시 영등포구 당산동4가 10-21,37.52869,126.903862
ST-941,0.1447136100449354,서울특별시 종로구 평창문화로 119일성아파트,37.608719,126.972862
ST-183,0.14439316352827739,서울특별시 종로구 교북동 10-1독립문역 사거리,37.572029,126.960785
ST-2194,0.14393141150193398,서울특별시 서대문구 홍은동 464-7,37.592934,126.941292
ST-70,0.14387013370103469,서울특별시 영등포구 국제금융로 86롯데캐슬 앞,37.520088,126.932365
ST-3249,0.14366469918515543,서울특별시 용산구 이촌로71길 10 한가람아파트,37.520271,126.973351
ST-2173,0.14331445910010754,서울특별시 용산구 한강대로 205 용산파크자이,37.536079,126.973419
ST-117,0.14261900880766798,서울특별시 종로구 사직로 지하130경복궁역 7번출구 앞,37.575794,126.971451
ST-78,0.14200434538405182,서울특별시 마포구 가양대로 189부엉이근린공원 앞,37.58559,126.884727
ST-3080,0.14145841023372954,서울특별시 용산구 원효로2가 1-73,37.537861,126.965652
ST-2786,0.14123468494534544,서울특별시 중구 중구 한강대로 405,37.555408,126.969421
ST-519,0.14045034774618356,서울특별시 강서구 양천로61길 101강서구 가양동 1484-5,37.559479,126.86438
ST-67,0.14038450578301556,서울특별시 영등포구 여의대방로 439여의도초등학교 앞,37.522675,126.93779
ST-279,0.1402183414284248,서울특별시 영등포구 양평동4가 20-4양평1 보행육교 앞,37.535873,126.892181
ST-1494,0.13968455488639703,서울특별시 마포구 성산로 128마포중앙도서관,37.563339,126.908203
ST-1342,0.13894918117635027,서울특별시 용산구 한강대로77길 18남영역 건너편,37.541981,126.971542
ST-928,0.13869350718870146,서울특별시 서초구 신반포로16길 30서초구 반포동 15-2,37.501713,126.995476
ST-2239,0.13773480051383302,서울특별시 용산구 이촌동 303-8,37.517296,126.959145
ST-872,0.13697704630841748,서울특별시 구로구 경인로3길 지하 64구로구 온수동 119-4,37.49279,126.824524
ST-3073,0.13679300128161362,서울특별시 영등포구 여의대로 66 하이투자증권,37.524643,126.923424
ST-1510,0.13648242405644626,서울특별시 강서구 공항대로 411강서구청사거리(SH타워),37.556736,126.853073
ST-1357,0.1364422545369338,서울특별시 관악구 신사로 132보라매공원 보도육교,37.488991,126.916382
ST-72,0.13575622157498893,서울특별시 영등포구 의사당대로 지하166샛강역 1번출구 앞,37.517765,126.928413
ST-2019,0.13564450685275414,서울특별시 종로구 평창문화로 65 평창동 주민센터,37.606274,126.968323
ST-2472,0.135521151980043,서울특별시 종로구 삼봉로95(견지동110),37.572182,126.982834
ST-66,0.13538638335086392,서울특별시 영등포구 국제금융로8길 2NH농협은행 앞,37.522079,126.930367
ST-2056,0.13516341649760277,서울특별시 강서구 내발산동 741-2,37.553631,126.828613
ST-1752,0.13477046548029115,서울특별시 종로구 평창문화로 6-4신영동삼거리(북악터널방향),37.603512,126.962067
ST-3056,0.1343554029772194,서울특별시 용산구 이태원로 186 국민은행,37.534401,126.994667
ST-306,0.1337549518555037,서울특별시 영등포구 영등포동1가35신길역3번출구,37.517693,126.914299
ST-1915,0.13346199862769198,서울특별시 서초구 방배로 264-2 구두수선대,37.497795,126.987068
ST-2822,0.1333194692976713,서울특별시 영등포구 국회대로50길 20 포레나 영등포,37.523415,126.905403
ST-1908,0.13312577171955162,서울특별시 서초구 잠원로 69 킴스클럽,37.510193,127.007256
ST-165,0.13219122149812937,서울특별시 종로구 사직로9길 5사직동주민센터,37.576332,126.96859
ST-1653,0.1300991773947754,서울특별시 영등포구 영중로 107영등포전화국사거리 (서강어린이공원),37.525768,126.905739
ST-116,0.1289191528870126,서울특별시 중구 정동길 2-1정동사거리,37.56805,126.969231
ST-687,0.1289007433828398,서울특별시 동작구 상도로 지하 188동작구 노량진동 311-4,37.505852,126.939362
ST-294,0.12875063958507987,서울특별시 영등포구 당산동4가 35-24삼성생명 당산사옥 앞,37.528263,126.896629
ST-2449,0.12858975802423983,서울특별시 용산구 원효로4가 114-38,37.532379,126.95253
ST-1062,0.12840379442261934,서울특별시 강서구 공항대로 33 송정역(5호선),37.561531,126.810699
ST-2978,0.1282475992484179,서울특별시 마포구 서울시 마포구 염리동 30-29,37.551529,126.946693
ST-322,0.12716878096046388,서울특별시 용산구 원효로4가 109-10목월공원 앞,37.532433,126.954742
ST-1069,0.1270448416675638,서울특별시 강서구 화곡로 302강서구청,37.550659,126.84977
ST-1645,0.12697512661410246,서울특별시 강서구 방화대로7길 6마곡13단지,37.55645,126.815979
ST-1791,0.1267920409789483,서울특별시 중구 세종대로 2 서울역 1호선,37.55677,126.973198
ST-508,0.1261692181248339,서울특별시 강서구 양천로17길 6강서구 방화동 769-23,37.573643,126.811806
ST-46,0.12571278411261008,서울특별시 영등포구 국회대로76길 1013-1,37.531239,126.921333
ST-2807,0.1255964812663582,서울특별시 영등포구 당산로36길 12 당산2차삼성아파트,37.527622,126.898636
ST-1152,0.12495423642980857,서울특별시 동작구 사당동 1131남성역3번출구 뒤,37.484631,126.97155
ST-700,0.12317599325626306,서울특별시 동작구 만양로 84노량진동 118-14,37.510548,126.944847
ST-2025,0.12164614241570763,서울특별시 강서구 가양동 1459-11,37.564587,126.856918
ST-121,0.12133081678281704,서울특별시 종로구 세종로 84-1,37.572559,126.978333
ST-1976,0.11991551620244706,서울특별시 영등포구 문래로4길 6 현대아파트,37.520218,126.882164
ST-2176,0.11887629000393754,서울특별시 용산구 삼개로 60 천년명가 청암자이,37.534527,126.947182
ST-2451,0.11879362092896432,서울특별시 용산구 이태원로 6,37.535286,126.974083
ST-1731,0.11738094432855062,서울특별시 양천구 목동동로 270오목교역 3번출구,37.524776,126.875481
ST-1325,0.11729502443651497,서울특별시 용산구 한강대로 289숙대입구역 8번,37.544079,126.972
ST-780,0.11711996302274467,서울특별시 서초구 잠원로4길 지하 46잠원역 ,37.512989,127.011177
ST-416,0.11649416264380218,서울특별시 영등포구 문래로 56영문초등학교 사거리,37.519928,126.889183
ST-514,0.1162384618111578,서울특별시 강서구 마곡동 221-4,37.573124,126.822388
ST-2050,0.11576741256510163,서울특별시 강서구 마곡중앙1로 71 마곡 13단지 힐스테이트 마스터,37.558632,126.819916
ST-2200,0.11553333856664488,서울특별시 서대문구 북아현동 1016-2,37.561455,126.95575
ST-336,0.11529684928806179,서울특별시 종로구 서린동 26-1종각역 5번출구,37.569836,126.982658
ST-975,0.11528725571387403,서울특별시 강서구 마곡서1로 111-12신방화역환승주차장,37.567284,126.818275
ST-417,0.11523905236724677,서울특별시 영등포구 선유로 34근로자회관 사거리,37.517151,126.888626
ST-660,0.1151174678162384,서울특별시 금천구 독산동 727-1,37.456726,126.893066
ST-1660,0.11486013580031533,서울특별시 광진구 능동로 92건대입구역 사거리(롯데백화점),37.539139,127.070618
ST-2026,0.11396457675134564,서울특별시 강서구 강서로 515 라이품,37.57132,126.841667
ST-877,0.11391444288858038,서울특별시 동작구 노량진로 191동작구 노량진동 152-7,37.513359,126.948059
ST-978,0.11357953518441276,서울특별시 종로구 효자로13길 45종로구 궁정동 98-2,37.583603,126.972549
ST-2446,0.11330497382201735,서울특별시 용산구 녹사평대로 140,37.5303,126.991379
ST-1599,0.11275570993054995,서울특별시 성동구 금호로 30독서당 인문아카데미센터,37.546089,127.02507
ST-2334,0.11230879024843185,서울특별시 성동구 성수동1가 719,37.541958,127.04277
ST-2486,0.11207078604987149,서울특별시 강서구 방화동621-6,37.561794,126.80793
ST-2902,0.11197147220705797,서울특별시 영등포구 영등포구 도신로(신길우성4차 401동 앞),37.512833,126.917633
ST-2920,0.11166766696873122,서울특별시 영등포구 영등포구 양평동5가 51-1,37.539726,126.890366
ST-516,0.11125429781617012,서울특별시 강서구 양천로 지하 560강서구 등촌동 666-40,37.557461,126.861458
ST-1275,0.11107336741966183,서울특별시 구로구 공원로 15구로도서관,37.498516,126.891991
ST-293,0.11073617426324936,서울특별시 영등포구 영등포동8가 82-4영등포삼환아파트 앞,37.530079,126.905708
ST-724,0.11072659493100519,서울특별시 관악구 신림로 270관악구 신림동 808-263,37.478428,126.931862
ST-439,0.11044915106901863,서울특별시 용산구 한강대로 349청파동입구 교차로,37.549026,126.971947
ST-422,0.11011422180641046,서울특별시 영등포구 양평로 58그랜드컨벤션센터 앞,37.534718,126.900002
ST-2482,0.10999990196353598,서울특별시 강서구 방화대로319,37.569248,126.816505
ST-3129,0.10996647057524803,서울특별시 강서구 방화대로50길 8 연세강서빌딩,37.576252,126.817345
ST-63,0.10995184869877063,서울특별시 영등포구 의사당대로 110미성아파트 A동 앞,37.519363,126.926048
ST-2812,0.1099270052854267,서울특별시 영등포구 영등포구 양평동3가 22-1,37.525726,126.886002
ST-71,0.10975530314110138,서울특별시 영등포구 의사당대로 166 샛강역,37.517586,126.929619
ST-2694,0.10970769531690504,서울특별시 영등포구 영등포구 의사당대로 1,37.532719,126.917992
ST-424,0.10969994675820545,서울특별시 영등포구 여의나루로 76증권거래소후문교차로,37.522343,126.927101
ST-760,0.10957698407805917,서울특별시 동작구 사당로 지하 310서초구 방배동 2298,37.485828,126.982628
ST-335,0.10951660674830974,서울특별시 용산구 이촌동301-5LIG강촌아파트 103동앞,37.518509,126.978798
ST-62,0.1084856488552594,서울특별시 영등포구 의사당대로 127롯데캐슬엠파이어 옆,37.520695,126.925835
ST-518,0.10798751122914456,서울특별시 강서구 허준로 139 강변아파트,37.564785,126.854645
ST-936,0.10786781963273426,서울특별시 구로구 시흥대로 551디지털입구 교차로,37.482883,126.901039
ST-791,0.10770775230325967,서울특별시 강남구 압구정로 지하 172압구정역 2번 출구 옆,37.527123,127.028717
ST-827,0.10712705584302903,서울특별시 성북구 안암로 69안암로터리 버스정류장,37.582592,127.028976
ST-41,0.10712455331686682,서울특별시 서대문구 연세로 50-189-4,37.560009,126.940735
ST-1964,0.10705125024236123,서울특별시 구로구 경인로 673-1 가로판매대,37.510063,126.889565
ST-2353,0.10678133742085372,서울 동작구 대방동 341-12,37.512135,126.925438
ST-2035,0.10644418665195433,서울특별시 강서구 마곡중앙8로 32 스페이스K 서울,37.561211,126.830345
ST-1661,0.10594371280829198,서울특별시 광진구 아차산로 236,37.540127,127.069496
ST-824,0.10587295249535121,서울특별시 강서구 양천로24길 13 마곡센트레빌,37.572563,126.816422
ST-1268,0.10544491538547467,서울특별시 관악구 보라매로 3당곡사거리,37.48975,126.927467
ST-1531,0.10515469067853193,서울특별시 구로구 구일로10길 27SK허브수 A동,37.495399,126.87101
ST-1509,0.10506047317638614,서울특별시 강서구 허준로 202가양3동 주민센터,37.561249,126.86058
ST-3084,0.10497180751537863,서울특별시 강서구 가양동 14-26,37.562508,126.852753
ST-2481,0.10491154296678354,서울특별시 강서구 화곡로228,37.545368,126.844704
ST-729,0.10374481675840756,서울특별시 동작구 동작대로 지하 3동작구 사당동 1112,37.481491,126.981583
ST-1675,0.10344601876602745,서울특별시 마포구 신촌로 지하 180이대역 5번출구,37.556591,126.94619
ST-2047,0.10331867492634576,서울특별시 강서구 마곡동 769-4,37.559128,126.834953
ST-2341,0.10311546140803735,서울특별시 성동구 성수동1가 685-632,37.54591,127.044601
ST-414,0.10306280454760326,서울특별시 영등포구 여의서로 60-2 가로판매대22,37.533657,126.912163
ST-2946,0.10299512896977442,서울특별시 강서구 염창동 284-46,37.550858,126.872337
ST-119,0.10282229529655437,서울특별시 종로구 세종대로 지하189세종로공원,37.57177,126.974663
ST-2023,0.10277588004945643,서울특별시 강서구 가양동 1458-13,37.57037,126.844414
ST-1254,0.10274931067732829,서울특별시 강서구 방화대로34길 65방화동 강서기동대앞,37.570499,126.820084
ST-927,0.1024771940440022,서울특별시 서초구 고무래로 34서초구 반포동 131-1,37.502636,127.012314
ST-3104,0.10235863627828956,서울특별시 양천구 오목로 245 목동역,37.526531,126.864456
ST-3204,0.1020635798093175,서울특별시 영등포구 경인로 900 여의도더리브스타일,37.517918,126.912598
ST-2017,0.10190015821245052,서울특별시 양천구 오목로 299 목동트라팰리스,37.525372,126.870926
ST-2944,0.10181280628835923,서울특별시 강서구 양천로55길 55 강서한강자이,37.567245,126.850388
ST-2473,0.10168977631962474,서울특별시 종로구 자하문로 56 자교교회,37.581146,126.971237
ST-280,0.1010570323706839,서울특별시 영등포구 양평동1가 115-2남부고용노동지청 남측,37.524506,126.891823
ST-1067,0.10078831500669488,서울특별시 강서구 가양동 1458-15기쁜우리복지관,37.56926,126.848419
ST-512,0.10053406924754313,서울특별시 강서구 마곡중앙5로 58강서구 마곡동 743-3,37.566982,126.8218
ST-834,0.10050756305428232,서울특별시 강서구 공항대로 329강서구 등촌동 675-7,37.558197,126.844261
ST-1995,0.09996822127182226,서울특별시 양천구 목동서로 159-3 가로판매대2,37.527855,126.874672
ST-330,0.09933677562207549,서울특별시 용산구 독서당로 18한남 유수지 복개주차장,37.530167,127.007439
ST-632,0.09922401820080998,서울특별시 금천구 독산동독산동 1086 (금천교 사거리 독산근린공원 입구),37.46455,126.883728
ST-2484,0.09915556761001608,서울특별시 강서구 방화동651-1,37.567535,126.805183
ST-1440,0.09913495278878721,서울특별시 중구 청계천로 400 롯데캐슬베네치아,37.571014,127.019745
ST-2527,0.09786333514745488,서울특별시 중구 퇴계로 135-14 구두수선대124,37.561226,126.987495
ST-2420,0.09775288507065082,서울특별시 성동구 사근동 241-1,37.561192,127.049683
ST-2199,0.09760004143305051,서울특별시 서대문구 현저동 941,37.572205,126.959747
ST-1517,0.09742607212849692,서울특별시 강서구 마곡중앙로 36마곡엠밸리 15단지(1502동) 건너편,37.557468,126.82972
ST-1721,0.09677134234057483,서울특별시 용산구 두텁바위로 74 용산중학교,37.546501,126.980949
ST-3212,0.09674540450777237,서울특별시 영등포구 당산로 83,37.521954,126.895508
ST-431,0.09659464862421782,서울특별시 양천구 등촌로 2홍익병원앞 교차로,37.530369,126.864258
ST-1938,0.09657749259908598,서울특별시 금천구 벚꽃로 298 대륭포스트타워6차,37.480888,126.883804
ST-1710,0.09620618970345204,서울특별시 강서구 내발산동 741-8,37.55545,126.826897
ST-1523,0.09579392645755962,서울특별시 구로구 중앙로 100고척LIGA아파트 앞,37.50605,126.860786
ST-2871,0.09541843886398803,서울특별시 강서구 강서구 마곡동 798,37.559746,126.824387
ST-3171,0.09531858221446328,서울특별시 영등포구 신길동 65-6,37.5135,126.920868
ST-2820,0.0947065783583146,서울특별시 영등포구 영등포구 선유로9길 30,37.518002,126.884598
ST-59,0.09418455539984345,서울특별시 영등포구 여의대로 3827,37.521908,126.918953
ST-1374,0.0937418013743771,서울특별시 종로구 송월길 99경희궁 자이 3단지,37.568855,126.964561
ST-175,0.0935394150657778,서울특별시 종로구 숭인동 81-39동묘앞역 1번출구 뒤,37.573242,127.015907
ST-1435,0.09325584400604287,서울특별시 중구 을지로 지하 129을지로3가역 3번출구,37.566559,126.992439
ST-1879,0.09316796271767604,서울특별시 강남구 도곡동 310-2,37.490959,127.054985
ST-1999,0.09302472918388272,서울특별시 양천구 공항대로 630 어바니엘,37.546707,126.874573
ST-2243,0.09269150555199895,서울특별시 은평구 백련산로 38 백련산 힐스테이트 2차,37.590363,126.923012
ST-1199,0.09227602313357212,서울특별시 성동구 성수동1가 678-1서울숲 관리사무소,37.542816,127.042084
ST-1714,0.09194684582431814,서울특별시 강서구 강서로 247엘펠리체 호텔 건너편,37.560242,126.835808
ST-1802,0.09147463546776795,서울특별시 종로구 사직로8길 20 경희궁 파크팰리스,37.574551,126.970551
ST-68,0.09135962561535368,서울특별시 영등포구 63로 45 여의도시범아파트,37.51902,126.93689
ST-185,0.09118794267609473,서울특별시 중구 서소문로 지하127시청역(2호선) 9번출구 뒤,37.563229,126.974838
ST-2625,0.0911453958303006,서울특별시 중구 퇴계로 235 남산 센트럴 자이,37.562527,126.998314
ST-1373,0.09112500296662158,서울특별시 종로구 경교장길 35경희궁자이 3단지,37.56749,126.965919
ST-145,0.09106712397292875,서울특별시 종로구 청계천로 93 파고다타워,37.568485,126.987885
ST-2993,0.09100042695935487,서울특별시 강서구 강서구 마곡동 798-17,37.558235,126.82576
ST-2464,0.09099036054702556,서울특별시 구로구 서울 구로구 구로동 1-2,37.506241,126.891144
ST-758,0.09065609169811654,서울특별시 서초구 방배동 388-5,37.489769,126.986763
ST-2054,0.09047680485889588,서울특별시 강서구 화곡동 662-6,37.53159,126.846642
ST-704,0.08989822359622471,서울특별시 관악구 난곡로 295관악구 신림동 1475-64,37.480251,126.914604
ST-1169,0.08983180404936346,서울특별시 서초구 잠원동 86,37.514839,127.015602
ST-2611,0.08977818662544254,서울특별시 강서구 초원로16길 3-9 안성빌라,37.567406,126.816216
ST-2489,0.08964310229981196,서울특별시 강서구 강서구 양천로47길 24,37.571289,126.837776
ST-2664,0.08955624929507848,서울특별시 서초구 반포동15-2,37.499798,126.996468
ST-525,0.08930232449539256,서울특별시 강서구 화곡로 지하 168강서구 화곡동 1089-43,37.542099,126.840218
ST-246,0.08904209418765838,서울특별시 성동구 금호동2가 1205-1금호사거리,37.548634,127.025726
ST-2439,0.08889980799692596,서울특별시 용산구 용산동6가 11-438,37.520878,126.979713
ST-150,0.08887331882679828,서울특별시 종로구 종로 지하129종로3가역 2번출구 뒤,37.570599,126.991791
ST-2041,0.08885027733649048,서울특별시 강서구 마곡중앙8로3길 79,37.568485,126.83857
ST-194,0.08872359556230384,서울특별시 중구 세종대로 지하2서울역9번출구,37.556,126.973358
ST-2965,0.0886830932356678,서울특별시 강서구 마곡동 748-4,37.556763,126.818695
ST-2857,0.08827656112397146,서울특별시 강서구 방화대로 294 마곡더블유타워,37.566929,126.816841
ST-329,0.08738344648949745,서울특별시 용산구 서빙고동 235-5서빙고동 금호맨션 앞,37.520504,126.989738
ST-2036,0.08729313529512055,서울특별시 강서구 공항대로 195 힐스테이트에코동익,37.559658,126.829605
ST-3102,0.08650577939298187,서울특별시 영등포구 영등포로 383,37.513824,126.920937
ST-2765,0.08633915895671491,서울특별시 양천구 목동동로 53 동문굿모닝탑Ⅰ,37.514812,126.861176
ST-1668,0.08624974742639545,서울특별시 중구 을지로 지하 42을지로입구역 1번출구,37.566345,126.982292
ST-1323,0.08601284166349661,서울특별시 영등포구 도영로 18쌍용플레티넘오피스텔,37.507931,126.895233
ST-1983,0.08589740380279698,서울특별시 영등포구 신길동 2798,37.500172,126.911308
ST-882,0.08556507991246817,서울특별시 관악구 봉천동 962,37.486202,126.935814
ST-352,0.0854121869170718,서울특별시 서대문구 홍제천로 48연희교차로 인근,37.56612,126.925896
ST-506,0.08515571255608824,서울특별시 성동구 아차산로 100성수동2가 315-105,37.544159,127.056656
ST-1909,0.08458760900265377,서울특별시 서초구 신반포로 219 반포쇼핑타운,37.507351,127.008018
ST-1916,0.08426082955060689,서울특별시 서초구 방배로 239 현대멤피스아파트,37.494205,126.989357
ST-918,0.0842587460963356,서울특별시 구로구 도림천로 351구로구 구로동 72-9,37.494404,126.894447
ST-1650,0.08419586867529408,서울특별시 영등포구 문래로 180센트럴 푸르지오 시티 앞,37.518211,126.902229
ST-2172,0.08393700019231667,서울특별시 용산구 이태원로 29 전쟁기념관,37.534889,126.975624
ST-2364,0.08302165601157531,서울특별시 동작구 사당로 300 이수자이,37.484703,126.980591
ST-1402,0.0819769082961897,서울특별시 강서구 마곡중앙1로 72 마곡엠밸리10단지,37.560291,126.818756
ST-1017,0.08179463182310819,서울특별시  양천구 목동 902-5목동2단지 상가,37.536503,126.877747
ST-663,0.08163471763384336,서울특별시 구로구 경인로67길 160구로구 신도림동 323-16,37.51424,126.882874
ST-1688,0.08132153251927966,서울특별시 강서구 공항대로 227마곡센트럴타워 1차,37.559471,126.832077
ST-2211,0.08126331055945232,서울특별시 서대문구 남가좌동 3-91,37.583344,126.922745
ST-241,0.08115736357760361,서울특별시 성동구 행당동 20-2한양대병원사거리,37.558052,127.040352
ST-1739,0.08114921902068929,서울특별시 서초구 동작대로 80이수역 6번출구 앞,37.483662,126.982323
ST-2411,0.08085520113609641,서울특별시 강서구 마곡서1로 60,37.562092,126.820969
ST-1305,0.08045597556905563,서울특별시 서초구 서초중앙로 130교대역 5번출구 뒤,37.493618,127.014183
ST-2810,0.08021303838944217,서울특별시 영등포구 영등포구 신길동 42-7,37.517563,126.916985
ST-436,0.08003343650070208,서울특별시 용산구 한강대로 161삼각지역 4번출구 앞,37.533451,126.971733
ST-535,0.07993271077821555,서울특별시 강서구 강서로5길 50강서구 화곡동 941-2,37.52906,126.84848
ST-1548,0.07979678515568579,서울특별시 관악구 남부순환로 1761양녕로 입구,37.482189,126.946159
ST-1972,0.07978546558631427,서울특별시 영등포구 당산동4가 80-2,37.530735,126.89917
ST-1383,0.07969221599016778,서울특별시 성북구 보국문로 91북한산보국문역,37.612072,127.008133
ST-1519,0.07954341638921138,서울특별시 강서구 공항대로 376KBS 스포츠월드,37.556877,126.848808
ST-1822,0.0795039371174679,서울특별시 종로구 사직동 9-2,37.575291,126.968956
ST-2355,0.07946647773351627,서울특별시 동작구 동작대로 89 골든시네마타워,37.484608,126.981796
ST-2823,0.07943156520962068,서울특별시 영등포구 영등포구 대림동 917-49,37.495823,126.908356
ST-695,0.07932076178709407,서울특별시 동작구 현충로 지하 220동작구 동작동 326,37.503189,126.97715
ST-3117,0.07923956526839099,서울특별시 동작구 여의대방로16길 1 태성대아파트,37.495823,126.917816
ST-180,0.0792255575744982,서울특별시 종로구 무악동 89-2,37.574158,126.958519
ST-761,0.0792130083434969,서울특별시 서초구 서초대로 4051377,37.496914,127.024963
ST-1320,0.07892047805636662,서울특별시 영등포구 선유서로 76 신동아아파트,37.522697,126.885681
ST-1807,0.07876567992509952,서울특별시 종로구 돈화문로10길 2,37.572468,126.99189
ST-2187,0.07871691610270001,서울특별시 용산구 용산동5가 17,37.52177,126.977005
ST-2478,0.0786283691536943,서울특별시 강서구 양천로 743 나이아가라관광호텔,37.54903,126.878365
ST-369,0.07847040403689748,서울특별시 동대문구 청계천로 417청계8가사거리 부근,37.571102,127.02356
ST-1253,0.07845668312967945,서울특별시 강서구 마곡서1로 68공항초등학교건너편,37.562679,126.820473
ST-2477,0.07826141550700101,서울특별시 강서구 마곡동 726-16,37.564976,126.817406
ST-2943,0.07785888550510756,서울특별시 강서구 가양동,37.569027,126.839882
ST-1804,0.07773520013273434,서울특별시 종로구 안국동 175-92,37.575806,126.983391
ST-1442,0.07754303669072146,서울특별시 용산구 서빙고로 67용산 파크타워 앞,37.523651,126.970268
ST-1920,0.07753491717522101,서울특별시 서초구 반포대로 275 래미안퍼스티지아파트,37.503624,126.997322
ST-2202,0.07727276411438903,서울특별시 서대문구 성산로 520 이화여자대학교 부속 중학교,37.564068,126.945328
ST-1063,0.0770756592524851,서울특별시 강서구 공항대로 163 마곡역(5호선),37.560207,126.824142
ST-1736,0.07691579560995303,서울특별시 양천구 안양천로 1156 신목동역자전거주차장,37.543949,126.883461
ST-1347,0.0768313864048062,서울특별시 성북구 보문로30길 29보문2교,37.588699,127.018913
ST-1819,0.0767727048089141,서울특별시 종로구 명륜2가 133,37.584797,126.997131
ST-2011,0.07660872524524437,서울특별시 양천구 신정동 321-8,37.517475,126.866325
ST-2888,0.07601467060392082,서울특별시 강서구 내발산동 657-2,37.555454,126.837517
ST-2163,0.0758136673301632,서울특별시 마포구 월드컵로36길 15 서부노인전문요양센터,37.566246,126.902184
ST-1270,0.07579560792250649,서울특별시 관악구 신림로 369신림동걷고싶은문화의거리입구,37.487301,126.928703
ST-1219,0.0756769761059128,서울특별시 구로구 구일로 90-51구일고등학교 정문,37.493401,126.874329
ST-949,0.07548605830240727,서울특별시 서초구 동작대로 204 청남빌딩,37.494743,126.983063
ST-1158,0.07542929358752024,서울특별시 서초동 1748-14서초역 3번출구,37.49054,127.008163
ST-360,0.07533909551874665,서울특별시 성동구 왕십리광장로 10-1왕십리역 4번 출구 건너편,37.561096,127.036797
ST-685,0.07527307820813592,서울특별시 동작구 노량진로 74동작구 대방동 47-3,37.512939,126.934242
ST-2447,0.0750905333303075,서울특별시 용산구 한강로3가 6,37.532482,126.964119
ST-388,0.07504552062612037,서울특별시 광진구 구천면로 2광진청소년수련관,37.546547,127.106133
ST-158,0.07501155348796647,서울특별시 종로구 대학로 104대학로 마로니에공원,37.579784,127.002533
ST-398,0.07490184565277823,서울특별시 동대문구 천호대로 269답십리역 1번출구,37.568184,127.051277
ST-1968,0.07461183801514269,서울특별시 영등포구 영등포동8가 29-1,37.526302,126.90538
ST-109,0.07460314467379216,서울특별시 성동구 아차산로 18뚝섬역 1번 출구 옆,37.548561,127.045006
ST-2309,0.07451223527991484,서울특별시 광진구 아차산로 417,37.538097,127.08902
ST-2873,0.07426900624147531,서울특별시 관악구 남부순환로1483,37.482048,126.915245
ST-997,0.07422871735630533,서울특별시 양천구 목동중앙로 49목동3단지 시내버스정류장,37.53439,126.869598
ST-666,0.07415777781173602,서울특별시 구로구 구일로 110구로구 구로동 642-107,37.495285,126.872162
ST-3213,0.07409113215291936,서울특별시 마포구 신촌로 212 아현교회당,37.556778,126.949341
ST-2803,0.07395648671616101,서울특별시 동작구 대방동 106-3,37.512627,126.927414
ST-2442,0.07346796600395793,서울특별시 용산구 한남대로 91,37.535919,127.005417
ST-281,0.0729821618074353,서울특별시 영등포구 양평동3가 14-1양평우림 이비즈센타 앞,37.52565,126.887817
ST-1151,0.07258467629323977,서울특별시 동작구 신대방동 395보라매공원 정문,37.497078,126.917793
ST-2490,0.0725237912613569,서울특별시 강서구 강서구 양천로47길 90,37.5741,126.837112
ST-2866,0.07242880222409093,서울특별시 용산구 원효로4가 113-54,37.532005,126.955559
ST-2362,0.0723052537189958,서울특별시 동작구 동작대로 43-2 구두수선대,37.479107,126.981506
ST-2225,0.07227325910328247,서울특별시 성북구 동소문동6가 140-5,37.592827,127.016289
ST-1797,0.07211419564339312,서울 송파구 올림픽로 95,37.516212,127.084343
ST-2368,0.07206940447140843,서울특별시 동작구 사당동 산1-13,37.491501,126.982407
ST-669,0.07195104518572241,서울특별시 구로구 디지털로31길 120구로구 구로동 772,37.4888,126.890663
ST-291,0.0719440956402357,서울특별시 영등포구 신길동 215-28신길선원가와인아파트 앞,37.510933,126.910225
ST-259,0.07187561121386343,서울특별시 광진구 구의동 96아차산역 3번출구,37.551224,127.089706
ST-2883,0.07180224099856089,서울특별시 강서구 방화동 849-2,37.571087,126.807541
ST-528,0.07120803206222368,서울특별시 강서구 공항대로 지하 529강서구 등촌동 505-3,37.551109,126.863709
ST-2058,0.0711416128653267,서울특별시 강서구 수명로2길 105 마곡수명산파크5단지아파트,37.550617,126.826881
ST-1259,0.07109229863078172,서울특별시 관악구 남부순환로 1641관악우체국,37.484768,126.932877
ST-2357,0.07082283220342162,서울특별시 동작구 만양로 6 e편한세상 상도 노빌리티,37.504562,126.946785
ST-286,0.07074358125271102,서울특별시 영등포구 신길동 4490보라매 두산위브 앞,37.496513,126.914803
ST-1496,0.07006537490280922,서울특별시 양천구 목동서로 38목동1단지아파트 상가 앞 (월촌중학교 버스정류소 옆),37.537869,126.881409
ST-2174,0.07006429364131332,서울특별시 용산구 백범로90길 34 구두수선대,37.537399,126.968925
ST-315,0.06989299574512756,서울특별시 양천구 신정동 319-3서울출입국관리사무소 앞,37.51897,126.869965
ST-2831,0.0698327339247163,서울특별시 강서구 공항대로 103,37.560684,126.819183
ST-2363,0.06970701606045115,서울특별시 동작구 사당로 272 삼보빌딩,37.48378,126.977921
ST-243,0.06938620238347563,서울특별시 성동구 용답동 224-3장안평역 8번 출구 앞,37.561371,127.06366
ST-238,0.06931399580578045,서울특별시 성동구 금호동3가 1575-3금호역 1번출구 앞,37.548641,127.016426
ST-991,0.06910779259597087,서울특별시 마포구 성암로330DMC첨단산업센터,37.584503,126.885597
ST-254,0.06908975591544564,서울특별시 광진구 강변역로 87-2 가로판매대 - 28,37.535824,127.094162
ST-1372,0.06861909726384753,서울특별시 종로구 율곡로 지하 308동대문역 8번출구,37.570141,127.009377
ST-262,0.06836995158957115,서울특별시 동대문구 장한로 25길 2장안동 사거리,37.572174,127.071388
ST-2465,0.06825611658726272,서울특별시 구로구 서울 구로구 구로동 50,37.501915,126.889244
ST-3258,0.06813369576822466,서울특별시 동대문구 왕산로 168 삼성화재청량리사옥,37.579021,127.042244
ST-788,0.06810102848917197,서울특별시 강남구 학동로 102 논현역,37.511372,127.021461
ST-1813,0.06772780359926157,서울특별시 종로구 창신동 397-6,37.571533,127.015617
ST-3202,0.06714634944444377,서울특별시 서대문구 통일로 81 NH농협생명빌딩,37.562336,126.969093
ST-1768,0.06701361165991862,서울특별시 중구 퇴계로 33 서울로7017편의시설,37.556416,126.969193
ST-1607,0.06669107669165932,서울특별시 종로구 종로 79-1종로2가 버스정류장 (종각방향),37.570358,126.986382
ST-891,0.06654996450404939,서울특별시 송파구 올림픽로 293-19송파구 신천동 28,37.513126,127.10096
ST-530,0.06651561705824753,서울특별시 강서구 등촌로 185강서구 등촌동 608-4,37.546532,126.862549
ST-2817,0.06650810426319391,서울특별시 영등포구 영등포구 시흥대로 665,37.491283,126.90802
ST-2018,0.06643310993161976,서울특별시 강서구 공항대로 607 서울도시가스사옥,37.547485,126.872025
ST-2654,0.0663186883180264,서울특별시 동작구 보라매로 99,37.498455,126.927979
ST-619,0.06627427848883867,서울특별시 금천구 벚꽃로 115가산동 680-2 독산역 2번출구 뒤편 자전거 주차장,37.46653,126.888718
ST-400,0.06618121697820134,서울특별시 동대문구 홍릉로 1청량리 기업은행 앞,37.580406,127.044823
ST-2811,0.06587933136510034,서울특별시 영등포구 양평로17길 36 성원아파트,37.534191,126.893013
ST-2538,0.06575763993165766,서울특별시 강서구 공항대로 260 이화의대부속서울병원,37.55846,126.836761
ST-2539,0.0656743398745947,서울특별시 강서구 화곡로 215 강서문화센터,37.544579,126.843781
ST-1403,0.06561792753143934,서울특별시 금천구 벚꽃로 309가산디지털단지 7번출구,37.481232,126.881485
ST-50,0.06560429203229409,서울특별시 영등포구 의사당대로 88,37.528164,126.917023
ST-1198,0.06553616997567697,서울특별시 성동구 상왕십리동 350-1왕십리교회옆,37.566261,127.023697
ST-2693,0.06546578007099288,서울특별시 중구 무교로 6,37.566471,126.979256
ST-3210,0.06493323256122692,서울특별시 중구 신당동 44-40,37.561043,127.018211
ST-1160,0.06473978369050912,서울특별시 서초동 1389서초4동주민센터,37.502319,127.02227
ST-2858,0.06458058959381878,서울특별시 강서구 마곡서1로 48,37.560593,126.820847
ST-1677,0.06452097633282623,서울특별시 영등포구 당산로31길 32쌍용예가(구청별관) 101동 인근,37.528099,126.893387
ST-2945,0.0644115199439,서울특별시 강서구 마곡동 800-23,37.557915,126.832977
ST-1542,0.06433742414809131,서울특별시 동작구 시흥대로 646미스터가이드양복전문점,37.489399,126.907112
ST-1824,0.06406492259935034,서울특별시 종로구 무악동 60-5,37.576668,126.955849
ST-1298,0.06393129597726883,서울특별시 동대문구 장한로 3-1 구두수선대,37.561966,127.064507
ST-2771,0.06370835977798668,서울특별시 양천구 신월로 160,37.517796,126.841614
ST-2175,0.06357655001803926,서울특별시 용산구 백범로 260 효창파크 푸르지오,37.540478,126.958115
ST-69,0.06344678108958421,서울특별시 영등포구 국제금융로 106 행진빌딩,37.519131,126.933373
ST-1924,0.06338419881015672,서울특별시 서초구 사평대로 108 반포골프백화점,37.49905,126.996254
ST-1771,0.0632014237397831,서울특별시 중구 세종대로 39 대한서울상공회의소,37.560154,126.974106
ST-1733,0.06309982302866335,서울특별시 구로구 경인로65길 16-15신도림4차 e편한세상 아파트 1109동 앞,37.512329,126.886833
ST-772,0.063073771426606,서울특별시 서초구 양재동 237-2,37.470165,127.03862
ST-2492,0.06297498087497697,서울특별시 강서구 강서구 가양동 1456-6,37.573864,126.843475
ST-3170,0.06282791865682283,서울특별시 영등포구 신길동,37.513199,126.923523
ST-1695,0.06264450819322878,서울특별시 강서구 개화동로8길 38개화광역환승센터,37.578449,126.798973
ST-2832,0.0624679721910834,서울특별시 강서구 마곡중앙로 33 마곡엠밸리14단지,37.557373,126.823326
ST-1237,0.062437204966240036,서울특별시 구로구 도림천로 351대림역 1번 출입구 밑,37.492565,126.894753
ST-288,0.062385245433665026,서울특별시 영등포구 영등포동7가 58-2유스호스텔 앞,37.525852,126.903282
ST-965,0.06225593471165821,서울특별시 관악구 남부순환로 1830서울대입구역1번출구,37.480869,126.953316
ST-189,0.062088394377299704,서울특별시 중구 청구로 77 청구역 5.6호선,37.560474,127.014076
ST-2455,0.06202136830972995,서울특별시 용산구 용문동 5-47,37.538513,126.963554
ST-1328,0.06200384860536029,서울특별시 용산구 이태원로 134이태원관광특구입구,37.534279,126.988564
ST-675,0.061846701638904274,서울특별시 구로구 경인로 430구로구 고척동 63-5,37.49947,126.868401
ST-2555,0.06178452283566269,서울특별시 강서구 공항동 34-69,37.560879,126.813545
ST-2564,0.06154317507124328,서울특별시 영등포구 영등포구 도림로143길 27,37.512882,126.890266
ST-2441,0.061444229291512706,서울특별시 용산구 서빙고로 69 파크타워아파트,37.5233,126.972061
ST-3013,0.06139222146894066,서울특별시 구로구 서울 구로구 구로동 496-128,37.500965,126.88237
ST-2626,0.061253640685268,서울특별시 중구 광희동 1가 202-5,37.564308,127.006477
ST-2039,0.06118340260813622,서울특별시 양천구 목동동로 350 목동신시가지아파트5단지,37.53302,126.877899
ST-712,0.06116322944020883,서울특별시 관악구 남현동 1060-12,37.476089,126.981331
ST-2005,0.060666695758957154,서울특별시 양천구 신정동 1145,37.518543,126.853882
ST-1226,0.060500791127391415,서울특별시 구로구 경인로 403원메디타운 앞,37.49789,126.864502
ST-3163,0.06046470937881501,서울특별시 양천구 목동 404-174,37.52367,126.875671
ST-2844,0.06036123001528772,서울특별시 양천구 목동동로 430 목동신시가지아파트6단지,37.533157,126.884087
ST-408,0.06021567967963799,서울특별시 동대문구 청계천로 563용두역 4번출구,37.573753,127.038536
ST-2013,0.05989352824253579,서울특별시 양천구 신정동 204-20,37.507904,126.862648
ST-300,0.05962154434513625,서울특별시 영등포구 신길동4884보라매역4번출구(순흥빌딩),37.499828,126.919945
ST-1191,0.059533638576041145,서울특별시 광진구 자양동 203-22영동대교 북단,37.537014,127.061096
ST-1667,0.05941989134111323,서울특별시 동작구 상도로 지하 378숭실대 입구역3번 출구 앞,37.496601,126.953682
ST-1554,0.05939685326626051,서울특별시 서초구 사평대로 349반포1동 서초빌딩 앞,37.503811,127.021362
ST-2356,0.059199128481815404,서울특별시 동작구 흑석동 340-10,37.504704,126.960732
ST-181,0.0591926636996939,서울특별시 종로구 서린동 93-2SK 서린빌딩 앞,37.569248,126.980537
ST-2623,0.059156928578092224,서울특별시 종로구 돈화문로11가길 59,37.575283,126.990623
ST-1602,0.05903506454947528,서울특별시 광진구 아차산로78길 90광진정보도서관,37.550598,127.110512
ST-2508,0.05889599906763003,서울특별시 동대문구 청계천로 471,37.570148,127.029922
ST-1016,0.05860446581799699,서울특별시 양천구 오목로 31 부근강서초등학교,37.522282,126.839699
ST-2431,0.05856486745454765,서울특별시 중구 을지로6가 18-169,37.568314,127.00946
ST-799,0.05853260360541393,서울특별시 강남구 봉은사로 지하 601봉은사역 5번출구 옆,37.514248,127.061119
ST-1556,0.05844759121781199,서울특별시 서초구 강남대로 341삼원빌딩,37.493259,127.029533
ST-1511,0.05835712715601951,서울특별시 강서구 공항대로 389 부민병원,37.556614,126.851166
ST-333,0.0583215949952612,서울특별시 용산구 용산동1가 8-4용산전쟁기념관,37.53484,126.977661
ST-2414,0.058281355501897184,서울특별시 서초구 잠원동 83,37.518322,127.014809
ST-176,0.058263504804163056,서울특별시 종로구 숭인동 1499,37.572197,127.023041
ST-752,0.05810011045519922,서울특별시 서초구 방배로 110서초구 방배동 905-34,37.485611,126.994682
ST-2049,0.057847075823213405,서울특별시 강서구 마곡동 728-352,37.555309,126.829857
ST-1015,0.057846145391784606,서울특별시 양천구 목동중앙로 212 앞신목동역 2번 출구,37.543842,126.882545
ST-1514,0.05782241452281804,서울특별시 강서구 수명로1길 16마곡수명산파크4단지아파트 401동 앞,37.55011,126.823677
ST-2886,0.05778323987181886,서울특별시 강서구 마곡동 799,37.559311,126.827438
ST-440,0.05774030639119075,서울특별시 용산구 한강로3가 66-4,37.522026,126.966187
ST-2669,0.05770037008355577,서울특별시 서초구 방배동 981-16,37.481167,126.997589
ST-324,0.057693188981463986,서울특별시 용산구 한남동 726-494한강진역 2번 출구 앞,37.541153,127.002213
ST-299,0.05767287429712144,서울특별시 영등포구 신길동853서울지방병무청 버스정류장,37.504494,126.921951
ST-111,0.05745518205957196,서울특별시 성동구 아차산로 18뚝섬역 5번 출구 정류소 옆,37.546307,127.049805
ST-2958,0.057439213037822,서울특별시 영등포구 양평동2가 42-1,37.523643,126.881836
ST-1337,0.057081907148699935,서울특별시 관악구 남부순환로 1817서울대입구역 5번출구,37.481548,126.952003
ST-2191,0.05695716247980533,서울특별시 용산구 서빙고동 241-37,37.519909,126.989235
ST-1006,0.05689523894899656,서울특별시 양천구 목동중앙로 70 서울영도초등학교,37.536377,126.871513
ST-272,0.056796695609388784,서울특별시 동대문구 신설동 92-34신설동역 10번출구 앞,37.575272,127.023468
ST-1818,0.05677791423332061,서울특별시 종로구 대학로 144 중원빌딩,37.583855,127.001854
ST-228,0.056744753600438805,서울특별시 서대문구 미근동 317-1임광빌딩 앞,37.564724,126.967278
ST-140,0.05671807985935267,서울특별시 중구 충무로1가 53-6,37.561344,126.980507
ST-2903,0.05669026648454666,서울특별시 중구 중구 청계천로 400,37.571621,127.022041
ST-1020,0.056585734834957324,서울특별시 은평구 신사동 41-3신사동 성당,37.597141,126.909599
ST-1654,0.05656099223191326,서울특별시 서초구 논현로 151도곡이스타빌,37.482979,127.042259
ST-2514,0.05654341458539486,서울특별시 중구 서소문로 103,37.562843,126.972618
ST-1994,0.05653694702167735,서울특별시 양천구 목동동로 350 목동신시가지아파트5단지,37.535667,126.881584
ST-2994,0.056209633584238014,서울특별시 강서구 공항대로 509 우림보보카운티뷰오피스텔,37.551884,126.863571
ST-2889,0.05598394731474955,서울특별시 강서구 마곡동 767-3,37.563541,126.824554
ST-694,0.055955552018313405,서울특별시 동작구 동작대로39길 22 이수힐스테이트,37.494663,126.982445
ST-944,0.05586735392729888,서울특별시 중구 퇴계로 212충무로역 1번출구,37.56139,126.995354
ST-233,0.055806045482310246,서울특별시 서대문구 충정로3가 56-1충정로역 7번출구 뒤,37.559967,126.962463
ST-547,0.055795889189867394,서울특별시 송파구 백제고분로 95송파구 잠실동 19-10,37.511982,127.085052
ST-420,0.05572492029697854,서울특별시 영등포구 영등포로 177영등포청과시장 사거리,37.520294,126.901192
ST-328,0.05569752695358186,서울특별시 용산구 동자동 14-229서울역 12번 출구 앞,37.552277,126.972687
ST-2270,0.055639640631961446,서울특별시 동대문구 망우로 74,37.589687,127.061409
ST-980,0.05562600434186907,서울특별시 광진구 자양동 749,37.528454,127.078033
ST-1177,0.055609476966620254,서울특별시 강남구 도곡동 874-1도곡동 경남아파트 건너편,37.489342,127.041298
ST-2359,0.0555918807240988,서울특별시 동작구 사당동 164-72,37.487122,126.974358
ST-1018,0.055492202979058734,서울특별시 양천구 목동 903-6목동3단지 상가,37.53458,126.875649
ST-693,0.05540425226387766,서울특별시 동작구 흑석로 47동작구 흑석동 221-1,37.507042,126.959152
ST-155,0.05535188559241666,서울특별시 종로구 종로 185종로4가 사거리,37.571068,126.998192
ST-1646,0.055314426645096025,서울특별시 강서구 화곡로63가길 92등촌9단지,37.562901,126.849472
ST-2845,0.05512666085142155,서울특별시 중구 통일로 92 케이지타워,37.563396,126.968941
ST-759,0.055091292949856666,서울특별시 서초구 방배천로 126서초구 방배동 3151,37.487011,126.984962
ST-524,0.055088031348867264,서울특별시 강서구 화곡로 157강서구 화곡동 1089-52,37.540981,126.838547
ST-60,0.05488809674430029,서울특별시 영등포구 여의대로 38금융감독원 앞,37.523022,126.920837
ST-691,0.054838756739550354,서울특별시 동작구 상도로 지하 272동작구 상도1동 776,37.502178,126.948204
ST-2550,0.05479397884804551,서울특별시 강서구 양천로 559 가양이마트,37.557133,126.863144
ST-2761,0.054602710895677226,서울특별시 양천구 신월로 342-1 구두수선대19,37.52198,126.859283
ST-2948,0.054523433965411,서울특별시 관악구 남부순환로 2054,37.476398,126.976837
ST-1338,0.054497770203828455,서울특별시 강서구 마곡중앙5로 58마곡중학교 후문,37.568447,126.821648
ST-2310,0.054434472298700014,서울특별시 광진구 화양동 24-33,37.54435,127.065407
ST-2667,0.05441252886225073,서울특별시 서초구 반포동 118-3,37.503658,127.005943
ST-2437,0.054411393768521915,서울특별시 용산구 원효로3가 54-14,37.533222,126.957237
ST-107,0.05432601405303875,서울특별시 성동구 왕십리로11길 9서울숲남문 버스정류소 옆,37.541222,127.0438
ST-3081,0.054255533475888476,서울특별시 용산구 한강로3가 64,37.524681,126.968193
ST-1497,0.0542069566488415,서울특별시 양천구 목동동로 298목동주차장,37.52668,126.876167
ST-1781,0.05416296175736085,서울특별시 중구 신당동 853,37.56765,127.01181
ST-1699,0.05414993331668813,서울특별시 영등포구 경인로 775 에이스하이테크시티,37.51413,126.899391
ST-2016,0.05398448756263112,서울특별시 양천구 오목로 300 현대하이페리온2,37.524906,126.869789
ST-910,0.05398215555933367,서울특별시 성북구 월곡로 지하 107성북구 하월곡동 37-4,37.602627,127.041634
ST-1899,0.05391440374508645,서울특별시 서초구 반포동 30-16,37.503643,127.016022
ST-705,0.0538471748604509,서울특별시 관악구 난곡로 210관악구 신림동 614-25,37.473728,126.918404
ST-143,0.053779912309649736,서울특별시 종로구 삼일대로 428낙원상가 옆,37.573357,126.987465
ST-1455,0.05356715108323296,서울특별시 성북구 보문로22길 28보문4교 인근,37.583752,127.02195
ST-169,0.053337353718717846,서울특별시 종로구 재동 19재동초교 앞 삼거리,37.579388,126.984947
ST-1436,0.05326900230143902,서울특별시 중구 만리재로 175서울역 센트럴 자이아파트,37.554108,126.965408
ST-1698,0.05325961016633626,서울특별시 영등포구 당산로41길 11당산동 SK V1 빌딩 인근,37.531509,126.897827
ST-1727,0.053200791833371,서울특별시 강서구 마곡서1로 146마곡엠밸리2단지 202동 인근,37.56918,126.819443
ST-304,0.0530995555695812,서울특별시 영등포구 도림동 159-70동아에코빌입구,37.509476,126.8993
ST-1829,0.05274103085900844,서울특별시 종로구 종로 104 YBM,37.570019,126.988808
ST-1812,0.05268034732781353,서울특별시 종로구 종로 302 1호선 동대문역,37.571461,127.010788
ST-3182,0.05266139975643578,서울특별시 구로구 구로중앙로39길 11,37.505196,126.87619
ST-640,0.05247931805088628,서울특별시 금천구 가산디지털2로 123가산동 450-2,37.479084,126.879044
ST-2044,0.05236798291161466,서울특별시 강서구 마곡중앙10로 10 LG사이언스파크,37.563927,126.830643
ST-2787,0.05220544793093301,서울특별시 성동구 성동구 고산자로 212,37.55862,127.034355
ST-1926,0.051975380887019765,서울특별시 서초구 강남대로 477-2 가로분식점,37.505089,127.023911
ST-249,0.05186660189769625,서울특별시 성동구 행당동 10한양대후문역 부근 (양키캔들 앞),37.560356,127.041397
ST-2453,0.05169023615503778,서울특별시 용산구 이태원로 177 6호선 이태원역,37.534531,126.996193
ST-3068,0.051597520094271355,서울특별시 강서구 양천로 660 왈도강서캠퍼스,37.552216,126.870224
ST-1263,0.05152580499473114,서울특별시 광진구 천호대로 지하 550군자역 7번출구 뒤,37.556862,127.07914
ST-151,0.05151784620455992,서울특별시 종로구 종로 128-2 가로판매대,37.570194,126.991653
ST-690,0.051351460497130644,서울특별시 동작구 상도로 지하 188동작구 상도동 26-20,37.504498,126.938988
ST-875,0.05113467755193448,서울특별시 구로구 오리로 1102-10구로구 천왕동 257-82,37.482105,126.845726
ST-311,0.05096644617997812,서울특별시 양천구 오목로 344 청학빌딩,37.523628,126.875244
ST-3276,0.050946469527672435,서울특별시 강서구 화곡동 1089-50,37.540981,126.837433
ST-2000,0.050825521017181505,서울특별시 양천구 공항대로 552 목동대우마이빌,37.549507,126.867218
ST-2819,0.05074580107272376,서울특별시 영등포구 영등포구 신길동 242-193,37.505089,126.913345
ST-1543,0.05073187114940245,서울특별시 동작구 여의대방로 122LG전자 베스트？ 대리점 앞,37.497669,126.919868
ST-2182,0.05072928652023568,서울특별시 용산구 용산동4가 10-4,37.534409,126.986893
ST-3011,0.050466747065153604,서울특별시 영등포구 당산동4가 93-3,37.529152,126.894478
ST-1266,0.050387156777571766,서울특별시 광진구 능동로 373용마사거리,37.562527,127.082275
ST-1526,0.05026006734492409,서울특별시 구로구 경인로 219동방서적,37.496761,126.844963
ST-2059,0.0501603152515712,서울특별시 강서구 화곡로65길 62 강서구민올림픽체육센터,37.559906,126.850426
ST-2007,0.05012011267381926,서울특별시 양천구 신정동 1278-2,37.517593,126.876556
ST-1991,0.05010682503700927,서울특별시 영등포구 신길동 3859,37.500137,126.913979
ST-2501,0.050042883846666504,서울특별시 동대문구 답십리로56길 124,37.567692,127.057892
ST-1615,0.049942535889844285,서울특별시 용산구 새창로 181선인상가,37.5327,126.964378
ST-1228,0.04991635145947759,서울특별시 구로구 경인로 382한마을아파트 정문상가,37.496498,126.863098
ST-1353,0.04986822402536463,서울특별시 영등포구 도신로29길 28영등포 푸르지오 아파트,37.513229,126.904465
ST-829,0.04986362473744225,서울특별시 강서구 화곡로 지하 168화곡역 6번출구,37.541412,126.840225
ST-1985,0.049835247967469264,서울특별시 영등포구 도신로29길 28 영등포푸르지오,37.512024,126.901054
ST-517,0.04978731321130063,서울특별시 강서구 양천로 637강서구 염창동 284-18,37.554253,126.867561
ST-842,0.049782254166494434,서울특별시 성북구 동소문로 2성북구 동소문동2가 2-3,37.588448,127.006706
ST-1632,0.04978144721284988,서울특별시 동대문구 왕산로 128동의보감타워,37.577999,127.037628
ST-1631,0.04971401993253444,서울특별시 동대문구 왕산로 87제기역1번출구,37.57835,127.033386
ST-309,0.0496506304864593,서울특별시 양천구 목동 813목동사거리 부근,37.532803,126.86393
ST-269,0.04958828447247022,서울특별시 동대문구 제기동 122-388,37.587746,127.037384
ST-368,0.049577198041166,서울특별시 성동구 아차산로 113성수역 2번출구 앞,37.54459,127.057083
ST-2639,0.04954087635395678,서울특별시 금천구 시흥동 1000-48 알레르망 가게 앞,37.454151,126.900452
ST-849,0.0492842152444149,서울특별시 중랑구 면목로 325,37.58099,127.088242
ST-2818,0.0492797700746816,서울특별시 영등포구 영등포구 영등포동2가 174-1,37.518749,126.912209
ST-1521,0.04921747290252689,서울특별시 구로구 디지털로31길 12태평양물산IT빌딩 앞,37.484859,126.895187
ST-2398,0.04921118634437908,서울특별시 양천구 신정동 332-2,37.515156,126.87249
ST-2809,0.049130169747729,서울특별시 영등포구 영등포구 가마산로 426,37.505455,126.906265
ST-199,0.049076833434526616,서울특별시 중구 청파로 456종로학원본원 앞,37.55978,126.968506
ST-3241,0.049068661016952814,서울특별시 영등포구 국회대로 596 영등포구민회관,37.526684,126.900192
ST-3143,0.049051637570837185,서울특별시 관악구 신림동 110-99,37.472202,126.933907
ST-943,0.04895799169932096,서울특별시 중구 을지로 지하 178을지로4가역 1번출구,37.566731,126.996605
ST-3066,0.04893644516385931,서울특별시 강남구 강남대로 652,37.519169,127.018974
ST-673,0.04888169883158363,서울특별시 구로구 새말로 73구로구 구로동 50,37.504379,126.888298
ST-3090,0.048843464249590386,서울특별시 종로구 중학동 10-3,37.575714,126.980507
ST-3106,0.04870348266465819,서울특별시 동작구 흑석동 25-21,37.506828,126.966736
ST-441,0.048586401363770695,서울특별시 용산구 효창원로 161효창동주민센터 앞,37.54232,126.96196
ST-132,0.04856385213438794,서울특별시 종로구 종로 47종각역 1번출구 앞,37.570396,126.981789
ST-303,0.04845039699868216,서울특별시 영등포구 신길동373-1도림4거리,37.506573,126.901131
ST-1605,0.048408875660659406,서울특별시 종로구 종로 239동대문 종합시장 버스정류장,37.571239,127.00441
ST-2884,0.04840795414469191,서울특별시 강서구 강서구 마곡동 799,37.559059,126.827049
ST-1900,0.048252847353520055,서울특별시 서초구 서초동 1417,37.498928,127.024727
ST-1606,0.04816863453901941,서울특별시 종로구 종로 지하 200종로5가 지하쇼핑센터 14번출구,37.57114,127.000671
ST-884,0.048058182863175314,서울특별시 관악구 관악로 217동진빌딩 앞,37.484257,126.954697
ST-3054,0.0480273969792083,서울특별시 용산구 소월로 109 남산도서관,37.552406,126.982018
ST-2003,0.04800163369940153,서울특별시 양천구 곰달래로7길 7 신월6차보람아파트,37.530128,126.834778
ST-312,0.04796274431100844,서울특별시 양천구 신정동 1095남부법원검찰청 교차로,37.523254,126.864906
ST-1171,0.04788738744410979,서울특별시 강남구 신사동 501-5신사동 가로수길 입구,37.517635,127.022453
ST-3267,0.047879844538231436,서울특별시 성동구 천호대로 282 남주빌딩,37.56678,127.05233
ST-123,0.04787484234431094,서울특별시 종로구 새문안로 55서울역사박물관 앞,37.57,126.9711
ST-2496,0.04779084383643777,서울특별시 동대문구  외대역동로6길 3,37.592865,127.065559
ST-1697,0.047772491169113744,서울특별시 영등포구 가마산로 352대림3동사거리,37.499809,126.898003
ST-3100,0.047687299829434066,서울특별시 강서구 등촌동 681-2,37.564182,126.840279
ST-152,0.04759265133834534,서울특별시 중구 퇴계로 214 충무로역 3.4호선,37.561447,126.993111
ST-1163,0.047581350158634655,서울특별시 서초구 방배동 875-9,37.488022,126.994118
ST-137,0.04756168566425042,서울특별시 중구 을지로 66한국외환은행 본점 앞,37.565464,126.984138
ST-387,0.047534277906101784,서울특별시 광진구 아차산로 552광나루역 3번 출구,37.54483,127.104263
ST-2816,0.04750899762803813,서울특별시 영등포구 영등포구 대림로 256,37.503841,126.896156
ST-2892,0.047400451843901355,서울특별시 구로구 구로구 구로동 50-7,37.501263,126.891182
ST-3195,0.04738223737003059,서울특별시 구로구 경인로43길 49 고척아이파크구로구 고척동 102-2,37.498013,126.860985
ST-924,0.04737328271836098,서울특별시 동작구 동작대로 지하 3동작구 사당동 1129,37.476891,126.980576
ST-871,0.0473687156325083,서울특별시 구로구 서해안로 2340-10구로구 오류동 135-2,37.493671,126.843704
ST-2559,0.04732428657673902,서울특별시 구로구 신도림동 385-3,37.508625,126.883537
ST-662,0.0472111216102877,서울특별시 구로구 신도림로 40구로구 신도림동 397-32,37.507332,126.87973
ST-828,0.04717814236910027,서울특별시 강서구 방화대로 241 공항중학교,37.562202,126.816246
ST-2764,0.047103042790848856,서울특별시 양천구 목동서로 271,37.523197,126.869301
ST-3203,0.04696776112371661,서울특별시 성북구 길음동 1289-5,37.608849,127.028458
ST-1503,0.04687281971398256,서울특별시 양천구 신목로 126,37.524742,126.877663
ST-1977,0.046867810328342176,서울특별시 영등포구 문래동3가 55-13,37.517071,126.899086
ST-239,0.046816059013837875,서울특별시 성동구 옥수동 산5-148옥수동성당 옆,37.543663,127.014061
ST-1188,0.04665803158119281,서울특별시 서대문구 신촌로 235-1북성초교,37.557396,126.952164
ST-1540,0.04660090553196695,서울특별시 영등포구 가마산로 315신동아아파트 앞,37.498241,126.893982
ST-2673,0.046472545038365266,서울특별시 강남구 압구정로 130,37.524227,127.02285
ST-245,0.0464626870936739,서울특별시 성동구 금호동4가 1101우리은행 금호동 지점 앞,37.548149,127.021088
ST-224,0.04642070628383576,서울특별시 서대문구 북가좌동 70-119연가초등학교 옆,37.57946,126.91713
ST-2659,0.046395287278801274,서울특별시 서초구 반포동20-45,37.507233,127.009453
ST-2198,0.04632024950047294,서울특별시 서대문구 합동 31-16,37.560463,126.965523
ST-2641,0.045870090696971164,서울특별시 금천구 독산동 1080-1 에이스하드웨어 정문 앞,37.468658,126.898262
ST-1694,0.0458642624288161,서울특별시 강서구 강서로 247우장산역 3번출구,37.547821,126.836128
ST-287,0.0458464615489719,서울특별시 영등포구 당산동4가 96-2제2구민체육센타 앞,37.526386,126.902756
ST-2034,0.04577839990392716,서울특별시 강서구 마곡동 806-5,37.555191,126.831467
ST-2419,0.04567187882513762,서울특별시 강서구 내발산동 751-6,37.55135,126.824936
ST-372,0.04565325023329853,서울특별시 성동구 마장로 292-1마장역 4번출구,37.565205,127.041847
ST-747,0.0455691701676717,서울특별시 서초구 신반포로 지하 188서초구 반포동 117-4,37.502232,127.002258
ST-1220,0.04547025217971612,서울특별시 구로구 가마산로 272강서수도사업소민원센터,37.495781,126.890121
ST-2179,0.04546321446793376,서울특별시 용산구 서빙고로 83 4호선 이촌역,37.522724,126.972771
ST-359,0.04543182490402514,서울특별시 성동구 고산자로 260성동광진 교육지원청 앞,37.564606,127.036522
ST-678,0.04535897802994062,서울특별시 구로구 남부순환로 775 개봉푸르지오,37.501705,126.847282
ST-1676,0.04533145664302267,서울특별시 강서구 발산로 24강서수산물도매시장,37.55302,126.818367
ST-1756,0.04529800247181992,서울특별시 종로구 팔판길 46삼청동 골목,37.58419,126.981697
ST-2048,0.04529501342835642,서울특별시 강서구 마곡동 728-46,37.555241,126.834717
ST-787,0.04526636990116545,서울특별시 강남구 봉은사로 지하 102교보타워 버스정류장,37.505581,127.024277
ST-2760,0.045245931731962195,서울특별시 양천구 목동동로 180 신정동 아이파크,37.521095,126.873207
ST-2565,0.0450158817958785,서울특별시 종로구 운니동 98-7,37.57753,126.989128
ST-688,0.045005869738057064,서울특별시 동작구 상도로 지하 76동작구 대방동 406-10,37.499645,126.927094
ST-237,0.04497501612760657,서울특별시 성동구 행당동 188-9왕십리역 11번 출구 앞,37.561447,127.03492
ST-2569,0.044898489576921045,서울특별시 강서구 마곡동 769-4,37.558632,126.835594
ST-2960,0.0448592638861816,서울특별시 양천구 목동동로 50 목동신시가지아파트12단지,37.514122,126.860405
ST-563,0.04485556856023673,서울특별시 성북구 동소문로 248동소문로248,37.603085,127.024788
ST-3118,0.04477985725335543,서울특별시 강서구 허준로 217 가양테크노타운,37.56036,126.862762
ST-821,0.04472974684749645,서울특별시 강남구 논현로 82삼호물산버스정류장(23370) 옆,37.477509,127.045174
ST-1264,0.04462741514747902,서울특별시 관악구 남부순환로 1728봉천역 2번출구,37.482189,126.942131
ST-950,0.04445261565382754,서울특별시 관악구 시흥대로 560조원동 미성아파트,37.483192,126.902031
ST-1522,0.04445220352987911,서울특별시 구로구 개봉로2길 133-15개봉아이파크아파트 앞,37.490341,126.860931
ST-2448,0.04441828137000594,서울특별시 용산구 한강로3가 37-2,37.527611,126.955116
ST-655,0.04438744142610654,서울특별시 성북구 종암로3길 37-2성북구 종암동 12-33,37.593288,127.036667
ST-1541,0.04413697385780067,서울특별시 영등포구 시흥대로 617신한은행,37.48753,126.904877
ST-2774,0.04413675032657908,서울특별시 양천구 목동동로 430 목동신시가지아파트6단지,37.536846,126.88475
ST-2412,0.0441351026870472,서울특별시 강서구 내발산동 752-1,37.552559,126.823112
ST-2658,0.04406507780890551,서울특별시 서초구 반포동63-6,37.501507,127.003479
ST-2813,0.04401424529313636,서울특별시 영등포구 국제금융로 109-2 가로판매대59,37.518509,126.934486
ST-811,0.04398600897171826,서울특별시 강남구 역삼동 801-7,37.503212,127.042732
ST-2052,0.04388201351084384,서울특별시 강서구 마곡서로 101 동익드미라벨복합빌딩,37.562294,126.823952
ST-266,0.043813253889781446,서울특별시 동대문구 겸재로 21휘경공고앞,37.584625,127.07029
ST-1774,0.04373505897175177,서울특별시 중구 소공로 106 서울 웨스틴조선호텔,37.564159,126.979485
ST-1780,0.04351577141987469,서울특별시 중구 을지로7가 143,37.566299,127.008492
ST-493,0.04349394073826082,서울특별시 강동구 천호대로 1005 현대백화점,37.538666,127.124245
ST-2268,0.04328735831286837,서울특별시 동대문구 장한로 99-1 구두수선대,37.567871,127.068718
ST-2352,0.04319874744611022,서울특별시 동작구 흑석로 84 중앙대학교,37.506672,126.957779
ST-510,0.043136429851198865,서울특별시 강서구 방화동 614-287,37.563873,126.810608
ST-1720,0.04309471980093276,서울특별시 송파구 양재대로 지하 1233올림픽공원역 3번출구,37.516258,127.130592
ST-418,0.04298900762896126,서울특별시 영등포구 영등포로 96교보생명보험 앞,37.521931,126.891617
ST-703,0.04296973342869472,서울특별시 관악구 관천로27길 2신사동 우방아파트,37.489178,126.919273
ST-1003,0.04290469997704728,서울특별시 양천구 화곡로 59신월동 이마트,37.539551,126.8283
ST-2992,0.04288973960024846,서울특별시 강서구 화곡동 1013-3,37.546619,126.836235
ST-798,0.042874007842452044,서울특별시 강남구 삼성동 111-4,37.521015,127.06015
ST-665,0.04287182748811324,서울특별시 구로구 구일로2길 59구로구 구로동 685-524,37.489632,126.876259
ST-256,0.042775729629272084,서울특별시 광진구 광장동 561-15광남중학교,37.54073,127.102905
ST-320,0.042742997687611625,서울특별시 양천구 신월동 790양서중학교 옆,37.533047,126.829956
ST-1647,0.04270672727704202,서울특별시 강서구 방화대로5길 7송정중학교,37.554729,126.816093
ST-1629,0.04251672803508943,서울특별시 동대문구 전농동 695-5,37.575733,127.048477
ST-29,0.042508700618056644,서울특별시 마포구 백범로 1031-213,37.55352,126.936951
ST-1996,0.04245470327499884,서울특별시 양천구 목동 927-10,37.525715,126.864868
ST-354,0.04220079600836394,서울특별시 서대문구 충정로3가 155-4충청2교,37.562138,126.963776
ST-2865,0.04216712785485283,서울특별시 광진구 뚝섬로 596,37.532986,127.07579
ST-2767,0.042006439231166405,서울특별시 양천구 남부순환로 435,37.528938,126.833122
ST-726,0.041972435847712666,서울특별시 동작구 상도로 지하 2동작구 대방동 466-51,37.500076,126.921082
ST-2842,0.041823805591801336,서울특별시 관악구 남부순환로1774,37.481632,126.947189
ST-1584,0.041737570595060274,서울특별시 송파구 올림픽로 305잠실역 8번출구,37.513962,127.100304
ST-957,0.04173415051337946,서울특별시 강남구 개포로 30310동 앞,37.481384,127.053917
ST-818,0.04163311995829101,서울특별시 강남구 남부순환로 27483호선 매봉역 3번출구앞,37.486767,127.046761
ST-1010,0.04158550760337944,서울특별시 양천구 신월동 263신월사거리,37.536201,126.827797
ST-1555,0.041511845074106615,서울특별시 서초구 강남대로 605신사역 4번출구 뒤,37.515881,127.019302
ST-2396,0.04148982401848499,서울특별시 양천구 목동동로 81 해누리타운,37.515842,126.864113
ST-2851,0.04148513351238482,서울특별시 관악구 신림동 1472-3,37.486752,126.922722
ST-523,0.0414553821640255,서울특별시 강서구 강서로 지하 262강서구 화곡동 1159-6,37.548908,126.836563
ST-1655,0.04144763982003952,서울특별시 서초구 반포동 128-13,37.498363,126.99115
ST-1529,0.041425379794209696,서울특별시 구로구 구일로 126삼성전자 물류센터 앞,37.496998,126.87178
ST-2624,0.04129354160872093,서울특별시 중구 중림로 10 중림동 삼성 사이버 빌리지,37.558914,126.964859
ST-2614,0.04128803366053869,서울특별시 관악구 남부순환로1537,37.483131,126.921356
ST-2504,0.041284386865873546,서울특별시 동대문구 회기로 37 한국국방연구원,37.591396,127.040298
ST-1817,0.04126104879405397,서울특별시 종로구 명륜2가 197-4,37.583275,126.998856
ST-746,0.04117768525909769,서울특별시 서초구 고무래로 89 반포써밋,37.500652,127.018616
ST-1974,0.04106210432788591,서울특별시 영등포구 도신로15길 5 영등포 다목적 배드민턴 체육관,37.506115,126.89859
ST-409,0.04104335146185108,서울특별시 동대문구 천호대로 231,37.570354,127.048431
ST-1350,0.04102642394697501,서울특별시 양천구 안양천로 1071이대 목동병원 앞,37.537228,126.886612
ST-2330,0.040978512628075364,서울특별시 성동구 뚝섬로1길 63 영창디지털타워,37.546959,127.047668
ST-2980,0.04094415758142166,서울특별시 마포구 만리재로 95 에스테반오피스텔,37.54892,126.959518
ST-1864,0.04079848523080902,서울특별시 송파구 올림픽로 74 잠실월드메르디앙,37.511463,127.078812
ST-1997,0.04077292093830111,서울특별시 양천구 목동로 212 목동신시가지아파트7단지,37.528206,126.870163
ST-641,0.04071013866000438,서울특별시 금천구 가산디지털1로 128가산동 371-37,37.47707,126.88443
ST-840,0.04070411114758823,서울특별시 송파구 석촌호수로12길 3-5송파구 잠실동 31,37.514088,127.09903
ST-2375,0.04040525731518961,서울 관악구 신림로 115,37.470688,126.936485
ST-1507,0.04037706378034738,서울특별시 강서구 공항대로 571강서구보건소 (삼성디지털 프라자),37.549179,126.868797
ST-125,0.04035026256045626,서울특별시 종로구 새문안로 102-2 가로판매대,37.569962,126.976158
ST-302,0.04027555610057927,서울특별시 영등포구 신길동263-76도림신협 앞,37.503803,126.903419
ST-108,0.0402340321381666,서울특별시 성동구 왕십리로 지하77서울숲역 4번 출구 옆,37.544582,127.044609
ST-486,0.04017433020976908,서울특별시 강동구 올림픽로 714 가로판매대-12,37.545265,127.125938
ST-257,0.04012302862431084,서울특별시 광진구 자양동 722잠실대교북단 교차로,37.532478,127.085091
ST-754,0.04004633079963671,서울특별시 서초구 남부순환로 2183서초구 방배동 2577,37.47261,126.983009
ST-2520,0.04002750086554676,서울특별시 중구 을지로1가 140-1,37.565903,126.981781
ST-2934,0.040011934102716286,서울특별시 서초구 신반포로 56-7 세화고.세화여고.세화여중,37.502094,126.99147
ST-793,0.039964789354138226,서울특별시 강남구 압구정로 311압구정파출소 앞,37.529301,127.035599
ST-482,0.03980613579819224,서울특별시 성동구 성수동2가 276-5KEB하나은행 성수중앙지점,37.545418,127.052643
ST-2027,0.03979801392571025,서울특별시 강서구 가로공원로 189 가로공원로 지하공영주차장,37.537361,126.837448
ST-1761,0.039792588129560914,서울특별시 중구 칠패로 5 서소문공원,37.559891,126.971497
ST-1515,0.03976816050841366,서울특별시 강서구 양천로 22개화산역 2번 출구,37.572472,126.806168
ST-134,0.03974884874459724,서울특별시 중구 남대문로 125 DGB금융센터,37.568634,126.982315
ST-375,0.0396789703363843,서울특별시 성동구 성수일로 27경일중학교 앞,37.543179,127.04908
ST-377,0.039650621762360214,서울특별시 광진구 구의강변로 106구의삼성쉐르빌 앞,37.540062,127.094498
ST-873,0.039554082876731234,서울특별시 구로구 구로중앙로 174구로동 603-26,37.503117,126.880386
ST-3265,0.039151521468654346,서울특별시 성동구 성수동2가 283-1,37.551052,127.052223
ST-142,0.03914817957375565,서울특별시 종로구 율곡로 지하62안국역 5번출구 앞,37.576241,126.98616
ST-1914,0.0390837836044579,서울특별시 서초구 방배로 194-2 구두수선대,37.489918,126.992081
ST-717,0.03907050527039441,서울특별시 관악구 남부순환로 지하 1822관악구 봉천동 979-2,37.481705,126.950829
ST-255,0.03906566352690472,서울특별시 광진구 구의동 546-3구의공원(테크노마트 앞),37.535969,127.094673
ST-3045,0.03902071015313266,서울특별시 성북구 성북구 솔샘로 107,37.615669,127.008766
ST-174,0.03902009812728182,서울특별시 종로구 율곡로 169원남동사거리,37.576061,126.997681
ST-1243,0.03901177008635605,서울특별시 구로구 천왕로 10천왕이펜하우스5단지 앞,37.479431,126.842697
ST-258,0.03891348592820976,서울특별시 광진구 자양동 738자양나들목,37.52977,127.07486
ST-637,0.03882837522366227,서울특별시 금천구 두산로 71독산동 295-22,37.47023,126.895073
ST-1508,0.03878284757172062,서울특별시 강서구 양천로 696염창동 새마을금고 건너편 (모닝글로리),37.550049,126.873161
ST-362,0.0387620956541271,서울특별시 성동구 왕십리로 64서울숲역 2번출구 앞,37.542816,127.04467
ST-2327,0.038726563833934836,서울특별시 성동구 행당동 33,37.55658,127.043358
ST-3271,0.038716128871502886,서울특별시 마포구 아현동 790,37.555157,126.952927
ST-565,0.03871493349032507,서울특별시 성북구 종암로3길 37-2성북구 종암동 12-33,37.598068,127.039276
ST-2558,0.03871384371810259,서울특별시 강서구 강서로 242 강서힐스테이트,37.546638,126.836578
ST-397,0.03870545845927875,서울특별시 동대문구 천호대로 145동대문구 보건소,37.574852,127.040306
ST-714,0.038607997998166735,서울특별시 관악구 봉천로 375관악구 봉천동 975-18,37.483341,126.943199
ST-1495,0.03859489047260381,서울특별시 양천구 목동서로 38목동1단지아파트 118동 앞 (월촌초등학교 정류소 옆),37.541142,126.876678
ST-1005,0.038568133813497864,서울특별시 양천구 신정동 310-8신트리공원 입구,37.51395,126.856056
ST-2272,0.0385582264280197,서울특별시 동대문구 안암로 6 대광중고등학교,37.578751,127.024025
ST-136,0.038449074868119965,서울특별시 중구 을지로 55명동금융센터 앞,37.566223,126.983589
ST-2308,0.03844325794385152,서울특별시 광진구 화양동 4-1,37.539566,127.072441
ST-3029,0.038364832037882324,서울특별시 금천구 디지털로10길 9 현대시티아울렛 가산점,37.477398,126.888779
ST-2022,0.03834473797795132,서울특별시 강서구 방화동 813-18,37.576317,126.816498
ST-298,0.03822812162614125,서울특별시 영등포구 신길동 249우주마루아파트 201동 앞,37.507641,126.92308
ST-2753,0.038110443561914085,서울특별시 구로구 오류동 332-37,37.492672,126.841621
ST-742,0.03810654882239729,서울특별시 서초구 청계산로 지하 179서초구 신원동 276-1,37.448936,127.054375
ST-2876,0.03806757376137281,서울특별시 송파구 송파구 방이동 40-6,37.517078,127.112328
ST-2046,0.03806597005640148,서울특별시 강서구 마곡중앙로 177 더넥센유니버시티,37.569485,126.828094
ST-812,0.03803771799082428,서울특별시 강남구 테헤란로 지하 156역삼역 지하보도 2번출구,37.502357,127.04319
ST-492,0.037956732535765876,서울특별시 강동구 올림픽로 767,37.549355,127.127083
ST-2468,0.03785430959664984,서울특별시 성동구 왕십리로189,37.554012,127.04155
ST-920,0.0376867608368843,서울특별시 구로구 경인로40길 47구로구 개봉동 416-99,37.494995,126.858253
ST-1810,0.037617852262450825,서울특별시 종로구 창경궁로 120 종로플레이스,37.5732,126.997963
ST-3040,0.037576385949715296,서울특별시 영등포구 대림동 646-1,37.502083,126.893188
ST-883,0.03756585768213717,서울특별시 관악구 남부순환로 1369관악구 신림동 1674-8,37.479916,126.90284
ST-186,0.037536222030770165,서울특별시 중구 동호로 지하256동대입구역 6번출구 뒤,37.558872,127.005539
ST-1805,0.03742642683614698,서울특별시 종로구 공평동 70-4,37.570705,126.983238
ST-1700,0.03740863038596113,서울특별시 영등포구 도신로29길 28영일 어린이공원,37.51012,126.904068
ST-1000,0.03736491059557918,서울특별시 양천구 신정동 236서부식자재마트 건너편,37.51038,126.866798
ST-3200,0.03733339444465375,서울특별시 영등포구 신길동 195-3,37.51157,126.913979
ST-764,0.037289315804285655,서울특별시 서초구 서초중앙로 지하 31서초구 서초동 1748-38,37.484558,127.01487
ST-2801,0.03728349862855358,서울특별시 영등포구 신길동 4958-1,37.504005,126.92028
ST-679,0.037205175304795786,서울특별시 구로구 개봉로3길 87구로구 개봉동 375-4,37.486061,126.852013
ST-3099,0.037115710003237073,서울특별시 성동구 천호대로 384,37.561687,127.061516
ST-1334,0.03692165070344347,서울특별시 중랑구 망우로 176중랑세무서,37.592758,127.07267
ST-271,0.03684188229403215,서울특별시 동대문구 용두동 237-10시립동부병원 앞 사거리,37.573666,127.030815
ST-1820,0.03678909571085772,서울특별시 종로구 연지동 1-38,37.575836,127.000694
ST-1218,0.0367889024293671,서울특별시 구로구 신도림로 67도야미리숯불갈비 앞,37.51001,126.88205
ST-1975,0.03678856958059114,서울특별시 영등포구 도림동 187-87,37.511242,126.898186
ST-2964,0.03666253777981645,서울특별시 금천구 서부샛길 606 대성디폴리스지식산업센터,37.480175,126.876801
ST-1652,0.0366441180254103,서울특별시 영등포구 대림로 153우성아파트 교차로,37.494572,126.89975
ST-2321,0.03648318203704277,서울특별시 광진구 화양동 18-39,37.547989,127.069504
ST-447,0.03645721520799435,서울특별시 성동구 마장로42길 14마장동 주민센터,37.565941,127.045395
ST-803,0.036390795998116676,서울특별시 강남구 남부순환로 지하 2814대치지구대 방향,37.491928,127.056969
ST-2314,0.0363766531861927,서울특별시 광진구 아차산로 360 서원빌딩,37.536575,127.082581
ST-2427,0.036329175272867144,서울특별시 종로구 혜화로 50,37.589836,126.999344
ST-1679,0.03617161113722924,서울특별시 강남구 강남대로 324역삼동 디오슈페리움 (우성아파트 사거리),37.492062,127.030746
ST-1705,0.03614437264864619,서울특별시 송파구 올림픽로 99잠실엘스 261동 인근,37.516781,127.090492
ST-2789,0.03613015438947627,서울특별시 강서구 마곡동 744-2,37.561085,126.816795
ST-126,0.03610085306575283,서울특별시 중구 세종대로 136청계광장 옆,37.568878,126.97747
ST-636,0.036038673014301324,서울특별시 금천구 시흥대로 391독산동 291-4,37.469139,126.897202
ST-538,0.03586925547926474,서울특별시 강서구 까치산로4길 22강서구 화곡동 98-148,37.54147,126.84478
ST-1564,0.03584949372770625,서울특별시 강남구 개포동 659,37.480251,127.054192
ST-1194,0.0358364954629111,서울특별시 광진구 군자동 111-2세종사이버대학교,37.553417,127.073196
ST-792,0.03566486393079217,서울특별시 강남구 압구정로 339-2 가로판매,37.528381,127.039017
ST-3046,0.03565033902187304,서울특별시 성북구 성북구 종암로 123,37.601089,127.033318
ST-887,0.03559500685346254,서울특별시 관악구 남부순환로 지하 1928봉천동 1693-39,37.477028,126.963394
ST-1772,0.035585874980179476,서울특별시 중구 을지로 30 롯데호텔,37.565842,126.979813
ST-361,0.035520125117018186,서울특별시 성동구 동일로 213비전교회 앞,37.551205,127.068932
ST-3214,0.03548257109300613,서울특별시 송파구 오금로 113 석촌씨티빌딩,37.512291,127.108253
ST-600,0.03547789565656767,서울특별시 노원구 월계동 47-37,37.615181,127.064644
ST-550,0.03543530388459573,서울특별시 송파구 올림픽로 240 롯데월드,37.511841,127.095688
ST-171,0.03543072443246601,서울특별시 종로구 연건동 178-3서울사대부속초교 앞,37.576508,127.002457
ST-177,0.03542569814699709,서울특별시 종로구 종로 411-3 가로판매,37.575592,127.02285
ST-733,0.035334142337991536,서울특별시 동작구 여의대방로16길 53신대방동 460-37,37.494499,126.916527
ST-715,0.035301026545957785,서울특별시 관악구 남부순환로 지하 1822관악구 봉천동 979-2,37.481339,126.950645
ST-2432,0.03528254549478281,서울특별시 중구 중림동 373,37.560246,126.968781
ST-1236,0.035258790479706974,서울특별시 구로구 신도림로 16신도림2차e편한세상아파트 203동 앞,37.50518,126.882538
ST-162,0.035205798451496295,서울특별시 중구 마장로 3맥스타일,37.569183,127.00988
ST-3138,0.035042437462540446,서울특별시 용산구 이태원로 59,37.54039,126.973495
ST-3027,0.03501463912186693,서울특별시 서대문구 충정로 36 국민연금충정로사옥,37.561848,126.964149
ST-1142,0.03500835785724403,서울특별시 가산동 144-3가산동 주민센터,37.476952,126.891869
ST-217,0.03499634228632333,서울특별시 서대문구 북아현동 251-78아현동 가구거리,37.557549,126.959381
ST-419,0.03497349046343967,서울특별시 영등포구 영등포로 124영등포유통상가 사거리,37.521133,126.896538
ST-1779,0.03495709313253073,서울특별시 중구 을지로 170,37.566051,126.997986
ST-1274,0.03489578420240483,서울특별시 구로구 가마산로 245구로구청,37.495266,126.888474
ST-1197,0.0348855705601987,서울특별시 성동구 하왕십리동 860-1상왕십리역 1번출구,37.56461,127.029198
ST-2397,0.034856544588266904,서울특별시 양천구 목동동로 130 목동신시가지아파트14단지,37.514664,126.871941
ST-1970,0.03484212764396911,서울특별시 영등포구 여의도동 1-1,37.527508,126.914299
ST-633,0.034826754279308245,서울특별시 금천구 금하로1길 70독산동 1094 (성민성결교회 앞),37.4547,126.891052
ST-1678,0.034823416527372066,서울특별시 관악구 신림로 144동방1교,37.471828,126.933922
ST-2415,0.03481451997233209,서울특별시 서초구 반포동 28-4,37.508476,127.016762
ST-3002,0.03478854974898996,서울특별시 성동구 서울 성동구 성수일로 10. 서울숲 itct 지식산업센터 앞,37.541275,127.048492
ST-3185,0.03476440778459579,서울특별시 강남구 남부순환로 2741,37.48661,127.045509
ST-1648,0.03475278051311191,서울특별시 금천구 시흥대로 39-7석수역1번출구 앞 (SK주유소),37.437271,126.902687
ST-534,0.0347302878699536,서울특별시 강서구 등촌로 19강서구 화곡동 939-3,37.531399,126.863609
ST-767,0.0347078259937059,서울특별시 서초구 남부순환로 지하 2585서초구 양재동 105-4,37.48399,127.03418
ST-2790,0.03465376511386461,서울특별시 강서구 마곡동 780-8,37.567192,126.834755
ST-2806,0.034602804287183514,서울특별시 영등포구 국회대로 612 코레일유통 사옥,37.526176,126.901978
ST-2443,0.03444664776525995,서울특별시 용산구 한남대로 148,37.541439,127.003761
ST-2226,0.034411031349663966,서울특별시 성북구 동소문로 98 제일은행,37.592365,127.016289
ST-310,0.0343821903939347,서울특별시 양천구 목동 904-3목4동주민센터 옆,37.532543,126.868729
ST-2057,0.03435919922578254,서울특별시 강서구 마곡동 811-6,37.572975,126.832443
ST-97,0.034351576067566766,서울특별시 광진구 능동로 지하210어린이대공원역 3번출구 앞,37.54707,127.074272
ST-727,0.034292727657410406,서울특별시 동작구 시흥대로 634동작구 신대방동 699,37.488361,126.906227
ST-2278,0.034273794055986045,서울특별시 동대문구 장안벚꽃로1길 7 장안 힐스테이트,37.576557,127.07431
ST-2014,0.03414970742859167,서울특별시 양천구 목동로3길 57 양천아파트,37.512287,126.86528
ST-2613,0.03413614836588331,서울특별시 강서구 강서구 공항대로 308,37.558029,126.841835
ST-2646,0.034094271974671506,서울특별시 영등포구 영등포구 의사당대로 1,37.53054,126.918175
ST-994,0.034067422240865196,서울특별시 양천구 목동서로161SBS방송국,37.529163,126.872749
ST-3089,0.03403705955869429,서울특별시 양천구 신정동 1325-2,37.510975,126.869843
ST-1201,0.03395225928393091,서울특별시 성북구 인촌로7길 120돈암성당 옆,37.590382,127.017136
ST-3061,0.03362589222689371,서울특별시 영등포구 의사당대로 88 한국투자증권빌딩,37.522434,126.922714
ST-1895,0.03353627588674675,서울특별시 강남구 선릉로 845,37.527454,127.040428
ST-2649,0.03347280441883207,서울특별시 동작구 상도동25-41(마을버스정류소20803 옆),37.505432,126.941513
ST-2331,0.03341852783096989,서울특별시 성동구 동일로 265 건영아파트상가,37.555141,127.071106
ST-173,0.03337230659458042,서울특별시 종로구 창경궁로 234성대입구 사거리,37.5825,126.998535
ST-102,0.03333237782836954,서울특별시 광진구 아차산로 355타워더모스트 광진아크로텔,37.53701,127.082245
ST-2668,0.033308767707258914,서울특별시 서초구 양재동 310-6,37.470398,127.042412
ST-2762,0.03329835430564683,서울특별시 양천구 중앙로 284 동성빌딩,37.521759,126.852287
ST-3146,0.03328077155335021,서울특별시 양천구 가로공원로 156,37.536427,126.833412
ST-987,0.033257317908786645,서울특별시 광진구 아차산로 304원일교회,37.538052,127.076599
ST-3052,0.03319346452585315,서울특별시 중구 서애로 33 티엔에스빌딩,37.559692,126.996483
ST-2395,0.03318359209485694,서울특별시 양천구 신정동 322-4,37.516865,126.862961
ST-2371,0.03317991746291354,서울특별시 관악구 은천로 110 더블유에스타워,37.486736,126.947517
ST-2800,0.033159043019731944,서울특별시 영등포구 신길동 4963-5,37.501606,126.91745
ST-410,0.03308215473876879,서울특별시 동대문구 장안동 473-6,37.566971,127.074295
ST-2373,0.033071536498713944,서울특별시 관악구 남부순환로 1719 삼성전자디지털센타,37.482754,126.941406
ST-815,0.033034653303035046,서울특별시 강남구 선릉로 435 원광빌딩,37.504009,127.04908
ST-1378,0.03298438156605113,서울특별시 광진구 자양로 167광진경찰서,37.542519,127.084084
ST-2012,0.032964112809486655,서울특별시 양천구 목동서로 280 목동신시가지아파트8단지,37.520073,126.868301
ST-3032,0.03294114159211465,서울특별시 금천구 독산동 871-45,37.461395,126.890038
ST-401,0.03290101295025978,서울특별시 동대문구 이문로 107외국어대 정문 앞,37.59602,127.05983
ST-1221,0.032881005383461316,서울특별시 구로구 가마산로25길 9-24구로구의회 앞,37.496456,126.889587
ST-1663,0.032846576111976826,서울특별시 광진구 뚝섬로 639중앙농협(자양동),37.531811,127.080742
ST-1808,0.032747860341925006,서울특별시 종로구 종로 153-2 가로판매대,37.570721,126.994377
ST-2280,0.03273582117298801,서울특별시 동대문구 이문동 346-131,37.592384,127.057411
ST-391,0.03261785420794588,서울특별시 동대문구 서울시립대로 161서울시립대 정문 앞(시더프라자빌딩 앞),37.583698,127.053856
ST-3286,0.032580944810083584,서울특별시 동대문구 전농동 623-19,37.577633,127.04464
ST-2379,0.032554842587739045,서울특별시 관악구 남부순환로 1654 은천교회,37.484646,126.934509
ST-2976,0.03244538934654772,서울특별시 마포구 공덕동 4-11,37.550159,126.960526
ST-2834,0.03226087662287996,서울특별시 성동구 성동구 광나루로 130,37.551414,127.044754
ST-2513,0.03226023183800188,서울특별시 종로구 관수동91-1,37.568558,126.992119
ST-483,0.03221665003552454,서울특별시 광진구 능동로 10뚝섬유원지역,37.532688,127.067497
ST-138,0.03219646401040633,서울특별시 중구 명동길 74명동성당 앞,37.564476,126.986969
ST-2479,0.03213026591037256,서울특별시 강서구 양천로590,37.55603,126.864296
ST-3043,0.03208652004312726,서울특별시 성동구 동일로 169,37.547535,127.066826
ST-1215,0.03208215589520653,서울특별시 성북구 안암로 17SK제삼주유소 앞,37.579449,127.024193
ST-2273,0.03207931324149313,서울특별시 동대문구 약령시로 25 안암골 벽산아파트,37.58408,127.031036
ST-1730,0.03197020732975857,서울특별시 송파구 오금로 162송파나루역 4번 출구옆,37.509979,127.112312
ST-890,0.03196779382902291,서울특별시 서초구 매헌로 16양재동 217-3,37.463322,127.036041
ST-701,0.031964222884701285,서울특별시 동작구 장승배기로 26상도동 201-38,37.500881,126.94175
ST-1553,0.03176198543166903,서울특별시 서초구 서초대로 248서초역1번출구 앞,37.491951,127.008553
ST-2318,0.031610852868959045,서울특별시 광진구 화양동 21-62,37.54789,127.067451
ST-276,0.03159524361111557,서울특별시 동대문구 답십리동 94-2청솔우성아파트 앞,37.574203,127.057693
ST-244,0.03154419313501421,서울특별시 성동구 하왕십리동 286-24청계벽산아파트 텐즈힐아파트 정류소,37.568748,127.030403
ST-2325,0.03148934709300996,서울특별시 광진구 군자동 473-26,37.557713,127.077271
ST-1013,0.03146174065596773,서울특별시 양천구 등촌로 236등촌역 5번 출구 뒤,37.550732,126.864578
ST-719,0.03137503749283877,서울특별시 관악구 남부순환로 1889관악구 봉천동 1693-38,37.478058,126.960495
ST-2340,0.031331317773515666,서울특별시 성동구 마장동 336-11,37.563396,127.04187
ST-2551,0.03117273407372824,서울특별시 강서구 화곡로 206 삼영빌딩,37.543827,126.843689
ST-757,0.03110990766298067,서울특별시 서초구 서초대로 지하 103서초구 방배동 874-16,37.489052,126.992523
ST-1609,0.03109100182592271,서울특별시 종로구 종로 383-1숭인2동 주민센터 입구 (이강3대냉면),37.574471,127.019829
ST-1300,0.031081479187625508,서울특별시 동대문구 한천로 42장안동위더스빌옆,37.5667,127.062424
ST-1939,0.03102693542330705,서울특별시 금천구 시흥대로 155,37.447853,126.902885
ST-2452,0.03099415685825967,서울특별시 용산구 녹사평대로73,37.52515,126.992088
ST-3042,0.03092340422318744,서울특별시 성동구 광나루로 144 더 스페이스 타워,37.551403,127.046364
ST-2899,0.030922561675290998,서울특별시 영등포구 영등포구 여의나루로 76,37.523479,126.927116
ST-2440,0.030903608355818797,서울특별시 용산구 용산동6가 11-438,37.521458,126.977676
ST-1712,0.030862657598085562,서울특별시 강서구 마곡동로 110코오롱글로벌㈜,37.564129,126.834312
ST-784,0.030767227918909172,서울특별시 강남구 영동대로112길 66삼성도로공원,37.515888,127.0662
ST-629,0.030617953021622187,서울특별시 금천구 시흥대로 198시흥동 1000-92,37.451458,126.902115
ST-1327,0.030561768672461836,서울특별시 용산구 원효로 35청암자이아파트앞,37.534424,126.94857
ST-1239,0.0305367284333551,서울특별시 구로구 오리로 지하 1154천왕역 1번 출입구 앞,37.48621,126.838821
ST-676,0.030528295278991726,서울특별시 구로구 고척로45길 1,37.503815,126.851959
ST-3003,0.030442177572620334,서울특별시 성동구 성동구 아차산로 144,37.543324,127.059715
ST-2190,0.030434328545728605,서울특별시 용산구 후암로 65 브라운스톤 남산아파트,37.551548,126.97686
ST-2663,0.030392754590739157,서울특별시 서초구 반포동60-1,37.503204,127.006531
ST-983,0.0303509144786004,서울특별시 광진구 능동로 313군자역2번출구,37.557587,127.079697
ST-509,0.030326894766942985,서울특별시 강서구 금낭화로 176강서구 방화동 855,37.581623,126.812653
ST-963,0.030325823286633323,서울특별시 강남구 학동로 342강남구청역 2번출구 뒤,37.516811,127.040474
ST-1967,0.030299953483078672,서울특별시 영등포구 신길로 275 영등포문화원,37.514812,126.911705
ST-2338,0.030290561199216935,서울특별시 성동구 금호동2가 1-5,37.556107,127.019783
ST-156,0.030259526466994684,서울특별시 종로구 창경궁로 271-1혜화동 로터리,37.585629,127.000679
ST-170,0.03023510845098142,서울특별시 종로구 창덕궁1길 3포르투갈 대사관 앞,37.579155,126.98896
ST-2932,0.0301996824891131,서울특별시 금천구 시흥대로73길 70 금천구청종합청사,37.457035,126.894325
ST-2650,0.030142980397650995,서울특별시 동작구 흑석동143-57,37.511204,126.961281
ST-445,0.030128483295814416,서울특별시 광진구 군자동 374-8광진광장 교통섬,37.547829,127.072632
ST-1782,0.03008336973695689,서울특별시 중구 광희동2가 105-32,37.56443,127.009956
ST-2996,0.03007261732169569,서울특별시 관악구 서울 관악구 신림동 458,37.488571,126.921387
ST-2839,0.030036390534283752,서울특별시 강남구 강변오솔길,37.527962,127.051628
ST-1306,0.030023615606288426,서울특별시 서초구 반포대로 43서울서초고용센터 앞,37.484161,127.010971
ST-762,0.03000684523803752,서울특별시 서초구 효령로36길 22서초동 1418,37.491112,127.022957
ST-230,0.029997907790560198,서울특별시 서대문구 충정로2가 138서대문역 8번출구 앞,37.564777,126.966148
ST-1722,0.02994546495062725,서울특별시 광진구 광나루로 545 래미안파크스위트,37.545006,127.090034
ST-2137,0.029898955293324876,서울특별시 강북구 도봉로 342,37.63797,127.025902
ST-3236,0.02978291604711193,서울특별시 금천구 가산로9길 109,37.474525,126.887077
ST-235,0.02977385993160354,서울특별시 성동구 홍익동 590양지사거리,37.566994,127.029915
ST-2653,0.029669026611553125,서울특별시 동작구 신대방동 702-2,37.485008,126.903503
ST-144,0.029650368112328726,서울특별시 종로구 종로 99탑골공원 앞,37.570396,126.98819
ST-2770,0.02964234694768607,서울특별시 양천구 신월로15길 25,37.520916,126.840958
ST-942,0.029634361441181353,서울특별시 중랑구 동일로 628하나은행,37.586372,127.080071
ST-234,0.029625701221488217,서울특별시 성동구 마장동 610청계천 박물관 앞,37.571526,127.035355
ST-2181,0.029580991962896094,서울특별시 용산구 이태원로 217 현대안성타워,37.535088,126.997971
ST-1537,0.029554262628650543,서울특별시 금천구 남부순환로128길 42모두의학교,37.478409,126.907372
ST-2305,0.029516446140557526,서울특별시 광진구 자양동 712,37.535072,127.076111
ST-1273,0.029477035207783896,서울특별시 구로구 새말로 31구로동롯데아파트,37.502548,126.883881
ST-195,0.029449859774293336,서울특별시 중구 동호로 330CJ제일제당 앞,37.563866,127.002747
ST-1681,0.029414554818482586,서울특별시 송파구 올림픽로 326 송파구청,37.515053,127.10627
ST-1959,0.029410276800320143,서울특별시 구로구 오리로 1100 천왕연지타워,37.483665,126.841614
ST-1961,0.029402015828425797,서울특별시 구로구 중앙로6길 5-15 청구아파트,37.50119,126.863533
ST-3075,0.029352537402940814,서울특별시 종로구 세종로 208,37.569931,126.976433
ST-325,0.02933597286889798,서울특별시 용산구 한남동 725-17한남초교 앞 보도육교,37.538139,127.004097
ST-2235,0.02927951586405196,서울특별시 성북구 정릉로 325-1,37.602425,127.019981
ST-2999,0.029233907096593813,서울특별시 금천구 가산디지털2로 98 IT캐슬,37.476368,126.880836
ST-974,0.029120572301117437,서울특별시 광진구 능동로 120학생회관,37.541912,127.077637
ST-624,0.029099446346280887,서울특별시 금천구 디지털로9길 32가산동 60-35,37.479031,126.887299
ST-2763,0.029055285038173298,서울특별시 양천구 목동동로 130,37.514069,126.869987
ST-885,0.02904990485430024,서울특별시 관악구 신림로 137관악구 신림동 289-3,37.472294,126.933411
ST-1174,0.028936906816832943,서울특별시 강남구 도산대로 333K+ 타워 앞,37.5233,127.038475
ST-1814,0.02887191879599491,서울특별시 종로구 창신동 23-825,37.577724,127.015251
ST-1501,0.028814014333095515,서울특별시 양천구 남부순환로 699잣절보도육교 아래,37.506821,126.844299
ST-3219,0.028773596488604825,서울특별시 금천구 디지털로10길 78 가산테라타워,37.475204,126.890129
ST-358,0.02876986136304898,서울특별시 성동구 무학로10길 6도선동 주민센터 앞,37.567642,127.025696
ST-511,0.0286552183803962,서울특별시 강서구 방화동로 지하 30강서구 공항동 산20-2,37.563347,126.810486
ST-2887,0.028606222314454706,서울특별시 강서구 곰달래로37길 13 화곡2동주민센터,37.531822,126.854622
ST-1929,0.028597915162635195,서울특별시 서초구 반포대로 201 국립중앙도서관,37.497211,127.004272
ST-870,0.028521038076908,서울특별시 구로구 경인로40길 47구로구 개봉동 202-42,37.494282,126.859215
ST-236,0.028476354990576578,서울특별시 성동구 하왕십리동 960-3상왕십리역 4번 출구 앞,37.563858,127.030319
ST-1454,0.02846347238049462,서울특별시 성북구 보문로 112-2,37.585197,127.019669
ST-1786,0.028443486393571683,서울특별시 중구 다산로 122 약수역 3호선,37.554321,127.010704
ST-1398,0.028442844482448278,서울특별시 양천구 신정로7길 92연의근린공원 건너편,37.512157,126.835625
ST-394,0.02837593224985525,서울특별시 동대문구 장한로6길 95군자교녹지대 동측 앞,37.561153,127.070969
ST-939,0.028315387612212285,서울특별시 종로구 진흥로 499신영동 삼거리,37.603992,126.961945
ST-2689,0.028299882048569144,서울특별시 강남구 역삼로7길 16 역삼1문화센터,37.495213,127.033028
ST-2274,0.028293800097883532,서울특별시 성북구 안암동5가 40-11,37.586552,127.033142
ST-248,0.028210957462019664,서울특별시 성동구 행당동 347-11행당역 2번출구 앞,37.55735,127.029213
ST-2219,0.028118698098451536,서울특별시 서대문구 서소문로 45 SK리쳄블,37.561317,126.966583
ST-1882,0.02808355120728107,서울특별시 강남구 도곡동 556,37.495899,127.052193
ST-1230,0.02807049405605513,서울특별시 구로구 고척로22길 64동인오피스텔 건너편 소공원,37.498482,126.847504
ST-539,0.028039493674143517,서울특별시 송파구 올림픽로 8송파구 잠실동 50,37.510429,127.071373
ST-2269,0.028009583178891847,서울특별시 동대문구 서울시립대로 14 청계한신휴플러스,37.572147,127.044609
ST-313,0.027995357945249467,서울특별시 양천구 신월동 894신정네거리역,37.521881,126.851753
ST-1757,0.02798403590349273,서울특별시 관악구 신림로 97 밀라트,37.470467,126.938652
ST-1637,0.02793809412644296,서울특별시 성북구 하월곡동 46-126,37.602356,127.039078
ST-1224,0.027932780672575038,서울특별시 구로구 디지털로26길 5가리봉동주민센터,37.481602,126.892799
ST-2361,0.027919473633276067,서울특별시 동작구 상도동 415-1,37.500248,126.94973
ST-1586,0.027903482091974022,서울특별시 송파구 석촌호수로12길 1-16석촌호수교차로(동호 팔각정 앞),37.509201,127.104118
ST-3260,0.027892945431682723,서울특별시 강서구 마곡중앙10로 30 LG사이언스파크,37.561535,126.83194
ST-1098,0.027825183579454172,서울특별시 면목동 120-2면목역 3번출구,37.588902,127.08728
ST-686,0.02780483235088843,서울특별시 동작구 여의대방로44길 20동작구 대방동 503-2,37.509369,126.92807
ST-2880,0.027721228050903015,서울특별시 용산구 용산구 동빙고동 315,37.525295,126.995834
ST-2642,0.02771242801272931,서울특별시 금천구 독산동1081-4(독산역마을버스정류장 뒤 자전거 거치대 옆),37.467094,126.889206
ST-112,0.027710632761041742,서울특별시 성동구 아차산로 171성수사거리 버스정류장 앞,37.54258,127.063309
ST-1574,0.02768456696807925,서울특별시 강남구 개포로 지하 522대모산입구역 4번 출구 앞,37.49181,127.073158
ST-1512,0.027666486228488257,서울특별시 강서구 공항대로 453대한항공 인력개발센터,37.554379,126.857536
ST-371,0.027591094065610822,서울특별시 성동구 광나루로 297 성동세무서,37.54829,127.062462
ST-531,0.027560191645079175,서울특별시 강서구 등촌로 167강서구 등촌동 608-6,37.544788,126.862
ST-3252,0.027517984670582904,서울특별시 구로구 가마산로 208,37.493126,126.884247
ST-1577,0.02746511068259315,서울특별시 강남구 강남대로 지하 396역삼.서초.삼성 세무서 앞 (역삼빌딩 앞),37.49847,127.030113
ST-3098,0.027394480351594586,서울특별시 강동구 천호동 250-7,37.548164,127.122574
ST-993,0.027343461564315844,서울특별시 양천구 신월로 342-1 구두수선대19,37.521511,126.857384
ST-240,0.027311193342716155,서울특별시 성동구 금호동2가 1220-1래미안금호하이리버 아파트 102동 옆,37.5522,127.025055
ST-771,0.02729284246878025,서울특별시 서초구 태봉로2길 24우면동 718,37.462639,127.026619
ST-1400,0.0271727415432165,서울특별시 양천구 목동중앙남로 100성원2차 아파트,37.542183,126.863304
ST-3243,0.027143324489493026,서울특별시 강남구 도산대로 446-2,37.523903,127.046608
ST-732,0.027140478929934066,서울특별시 동작구 사당동 1157-2,37.489079,126.973564
ST-1386,0.02711796326894097,서울특별시 성북구 정릉로 272정릉역,37.603096,127.013504
ST-407,0.027078055556497296,서울특별시 동대문구 홍릉로 26-1 거리가게,37.58255,127.044601
ST-2435,0.026974628169187786,서울특별시 구로구 천왕동 63-5,37.476048,126.845016
ST-1007,0.026973929546554528,서울특별시 양천구 남부순환로70길11-9오솔길공원,37.52219,126.8367
ST-425,0.02696608978360735,서울특별시 영등포구 여의동로 48샛강생태공원장문자센터 앞,37.518963,126.921616
ST-273,0.026881520595453613,서울특별시 동대문구 용두동 237-10용두동 사거리,37.577686,127.031013
ST-3030,0.026871997035559373,서울특별시 영등포구 양평동2가 33-80,37.525566,126.885841
ST-1518,0.02683493535980079,서울특별시 강서구 발산로 40농산식품공사 (강서지사),37.551044,126.818497
ST-1499,0.02683231788597457,서울특별시 양천구 목동동로 33한사랑교회 앞,37.514721,126.8592
ST-988,0.026727674596693382,서울특별시 광진구 능동로 42신양초교앞 교차로,37.535221,127.068398
ST-984,0.026724829942645623,서울특별시 광진구 자양로 131광진구청 앞,37.539501,127.083
ST-1165,0.026712314803347088,서울특별시 양재동 67-12일동제약 사거리,37.477829,127.038269
ST-2507,0.02670545151530107,서울특별시 동대문구 청계천로 517,37.571301,127.033623
ST-1105,0.026688687274798954,서울특별시 강북구 미아동 66-1미아사거리 1번 출구,37.613956,127.030251
ST-1445,0.0266740819018308,서울특별시 용산구 이태원로 134녹사평역 광장,37.533798,126.98867
ST-2502,0.026636889981476945,서울특별시 동대문구 용두동 150-32,37.579586,127.030243
ST-157,0.026624618416606682,서울특별시 종로구 대학로 지하120혜화역 3번출구 뒤,37.58157,127.001785
ST-252,0.026598616609537287,서울특별시 광진구 중곡동 263-1군자교교차로,37.559795,127.074203
ST-2563,0.0264068310569769,서울특별시 영등포구 영등포구 경인로77길 49,37.513748,126.888512
ST-402,0.026370124292124403,서울특별시 동대문구 이문로1길 11시조사 앞 (청량고정문 옆),37.587517,127.052773
ST-3215,0.026249230289189327,서울특별시 양천구 신월동 446-3,37.523994,126.842133
ST-770,0.026221767326292948,서울특별시 서초구 바우뫼로18길 14서초구 양재동 127-1,37.473614,127.03051
ST-265,0.026171553224296908,서울특별시 동대문구 천호대로 26신설동역9번출구,37.5742,127.026497
ST-1582,0.026169075266292263,서울특별시 송파구 석촌호수로 176석촌호교차로 (스타벅스 앞),37.506561,127.096558
ST-332,0.026163467303281184,서울특별시 용산구 용산동2가 6-7녹사평역1번출구,37.53508,126.985382
ST-2463,0.026079531487703755,서울특별시 구로구 서울 구로구 개봉동 412-43,37.49334,126.859177
ST-1456,0.026054445292121493,서울특별시 성북구 성북로 25성북동 치안센터 앞,37.590172,127.004089
ST-769,0.02603431850590756,서울특별시 서초구 바우뫼로1길 35서초구 양재동 20-40,37.477852,127.03891
ST-2382,0.026031967153028468,서울특별시 관악구 남부순환로 1868,37.479465,126.956932
ST-1960,0.025982319101216476,서울특별시 구로구 개봉로19길 87 로얄파크,37.493965,126.853043
ST-3136,0.025960949569103466,서울특별시 성동구 성수일로10길 26 하우스디 세종타워,37.546444,127.053322
ST-3208,0.025879252450980893,서울특별시 강남구 논현동 56-21,37.51281,127.026367
ST-1885,0.025832572179366374,서울특별시 강남구 삼성동 111-86,37.514309,127.0597
ST-274,0.02578620354142395,서울특별시 동대문구 용두동 696-13용두동 레미안허브리츠아파트 앞,37.576382,127.03511
ST-2821,0.02578289973320656,서울특별시 영등포구 영등포동 649-1,37.514702,126.91214
ST-2768,0.025743552135271533,서울특별시 양천구 신월로 200,37.520111,126.844749
ST-1793,0.02574083230106429,서울특별시 송파구 양재대로 925 가락1동주민센터,37.50005,127.111511
ST-3077,0.025686588492280397,서울특별시 강남구 테헤란로 518 한국섬유산업연합회,37.507671,127.060173
ST-1978,0.02566547358143448,서울특별시 영등포구 선유로 87,37.521828,126.889725
ST-1500,0.025664902326740832,서울특별시 양천구 오목로3길 32보아스아파트 앞,37.524071,126.8386
ST-1887,0.02563968916650647,서울특별시 강남구 봉은사로 110 연우빌딩,37.504673,127.025795
ST-765,0.025601725564261546,서울특별시 서초구 서초대로 지하 294서초구 서초동 1748-6,37.494217,127.013786
ST-3221,0.02560135152513349,서울특별시 서초구 양재천로19길 4,37.475559,127.038261
ST-2643,0.025591364405378538,서울특별시 영등포구 영등포구 의사당대로 1,37.532574,126.914047
