stop_id,score,address,latitude,longitude
ST-453,3282.0,서울특별시 은평구 진관동 86-31구파발역 2번출구,37.636234,126.918999
ST-1483,893.8693429700772,서울특별시 은평구 진관2로 15-46은평구 진관2로 15-46,37.639259,126.918907
ST-1035,574.1019367442832,서울특별시 불광동 487-2연신내역 1번 출구,37.619781,126.920807
ST-1481,490.0028188743628,서울특별시 은평구 진관2로 지하 15-25구파발역 환승센터,37.638252,126.919456
ST-2905,411.5290530978272,서울특별시 마포구 망원로 1-1 토목과 자재창고,37.555576,126.896889
ST-1329,394.53156928024714,서울특별시 은평구 진관3로 77은평뉴타운구파발9단지,37.642609,126.921478
ST-1024,388.5612418327152,서울특별시 진관동 44-28금암 문화공원,37.644684,126.918457
ST-452,351.3133583477222,서울특별시 은평구 진관동 5-8은평뉴타운 푸르지오,37.648674,126.930702
ST-471,319.8993365047908,서울특별시 은평구 불광동 355국민은행 연서지점,37.620949,126.925636
ST-1039,316.5995013805572,서울특별시 불광동 73-1번지서울연신초등학교,37.625778,126.928818
ST-451,302.5808051776922,서울특별시 은평구 진관동 13-20은평뉴타운 아이파크,37.645866,126.927391
ST-3058,293.93317530630145,서울특별시 은평구 진관동 91-10,37.634701,126.917358
ST-456,270.57265473908933,서울특별시 은평구 갈현동 536-8구산역 4번출구,37.613186,126.917351
ST-1023,270.5542000926186,서울특별시 은평구 진관동 30-23상림마을 롯데캐슬2단지 옆,37.645851,126.923798
ST-476,268.2233199217853,서울특별시 은평구 진관동 133-29은평역사한옥박물관,37.641315,126.938042
ST-2244,246.41966080775353,서울특별시 은평구 진관4로 26 진관고등학교,37.643509,126.924103
ST-481,242.4124804377849,서울특별시 은평구 서오릉로 163LG서비스 역촌점,37.612484,126.914879
ST-454,223.86438193533718,서울특별시 은평구 대조동 207-8연신내역 5번출구,37.61721,126.919579
ST-2260,223.17291295547605,서울특별시 은평구 진관동 289,37.658287,126.945297
ST-2259,216.50185496851117,서울특별시 은평구 진관동 298-2,37.656769,126.942009
ST-2263,209.66081907228087,서울특별시 은평구 진관1로 52,37.631409,126.925407
ST-1028,201.85399311337164,서울특별시 진관동 16-4상림마을 생태공원,37.644081,126.929283
ST-3028,188.78485267852614,서울특별시 은평구 불광동 476-10,37.627945,126.919769
ST-2780,187.47989113774238,서울특별시 은평구 연서로,37.629627,126.930115
ST-450,186.90828512001096,서울특별시 은평구 진관동 45-21진관동 은빛초등학교,37.643108,126.918221
ST-455,165.71244594307674,서울특별시 은평구 역촌동 43-11CJ 드림시티,37.599491,126.916862
ST-1480,157.1407304135014,서울특별시 은평구 진관3로 73-17구파발10단지 인근,37.643662,126.914558
ST-3126,156.60637280754807,서울특별시 은평구 진관동 85-3,37.634068,126.925392
ST-1027,153.80014337059407,서울특별시 진관동 141-27은평뉴타운 도서관,37.637222,126.933304
ST-2264,151.8986375354385,서울특별시 은평구 연서로 9 센타폴리스,37.599968,126.915726
ST-2782,137.28390414613582,서울특별시 은평구 통일로 873 청구성심병원,37.620876,126.9198
ST-2261,118.36295625225553,서울특별시 은평구 진관동 235-2,37.630287,126.919563
ST-1489,112.50633272819012,서울특별시 은평구 진관4로 48-50은평뉴타운 상림마을 13단지,37.64209,126.929413
ST-17,107.73458160091474,서울특별시 서대문구 통일로 483홍은사거리 앞,37.59116,126.94133
ST-1031,107.23711672902046,서울특별시 은평구 진관동 149-17기자촌 사거리,37.63414,126.932343
ST-1038,103.51103425938098,서울특별시 불광동 400-4번지서울연신중학교,37.62265,126.925247
ST-3201,101.67110747725891,서울특별시 은평구 진관동 151-10,37.628342,126.933815
ST-467,101.26649954615246,서울특별시 은평구 녹번동 15-2서울혁신파크,37.607025,126.933311
ST-475,99.08848780804453,서울특별시 은평구 불광동 304-5연신내역 3번출구 인근,37.617855,126.922524
ST-479,98.27828222855199,서울특별시 은평구 역촌동 45-34역촌파출소,37.604736,126.915337
ST-1036,95.12803103105675,서울특별시 은평구 연서로 124,37.609802,126.916794
ST-462,88.35695916373676,서울특별시 은평구 응암동 610-3새절역 2번출구,37.590797,126.913651
ST-469,86.74421106845323,서울특별시 은평구 진관동 242-14신도고등학교,37.630016,126.919029
ST-1490,86.47182079607352,서울특별시 은평구 진관4로 78-38 은평지웰 테라스,37.643394,126.932137
ST-2824,81.21881666344814,서울특별시 은평구 은평구 갈현로 301,37.623608,126.916885
ST-472,79.805913024056,서울특별시 은평구 진관동 161-9메뚜기다리,37.628517,126.929581
ST-87,79.32669709591671,서울특별시 마포구 월드컵로 240홈플러스 월드컵경기장점,37.56842,126.899429
ST-1331,79.2574806599611,서울특별시 은평구 응암로 247 외환은행,37.594414,126.918015
ST-464,78.37689775074848,서울특별시 은평구 역촌동 15-40평생학습관 앞,37.607849,126.921326
ST-89,73.91591141478504,서울특별시 마포구 성산동 421-10,37.57048,126.898895
ST-480,73.89934165094678,서울특별시 은평구 연서로 117예일여중,37.610004,126.916397
ST-460,73.37870723072855,서울특별시 은평구 응암동 604-5응암오거리,37.589661,126.916946
ST-459,72.91508203189954,서울특별시 은평구 녹번동 153-31은평평화공원(역촌역4번출구),37.605583,126.922935
ST-25,70.86462783114511,서울특별시 서대문구 홍제동 277-23277-23,37.59433,126.947388
ST-2783,70.48128432593481,서울특별시 은평구 통일로 885,37.622051,126.919586
ST-461,69.4016180824601,서울특별시 은평구 응암동 90-15이마트 은평점,37.6007,126.920128
ST-2245,65.85650587609365,서울특별시 은평구 진관동 148-31,37.633102,126.931503
ST-465,65.1817479324126,서울특별시 은평구 응암동 15-1,37.600761,126.935371
ST-18,62.344697253866556,서울특별시 마포구 동교동 192-44,37.557438,126.923821
ST-2241,60.54559837173106,서울특별시 은평구 진관동 136-45,37.637348,126.935844
ST-35,60.408779276196334,서울특별시 서대문구 불광천길 150345-27,37.582031,126.908997
ST-344,60.20185844511164,서울특별시 마포구 하늘공원로 108-1월드컵공원,37.563965,126.898209
ST-2250,59.50329265136584,서울특별시 은평구 녹번동 81-27,37.604126,126.925087
ST-3169,59.248504731342955,서울특별시 은평구 서오릉로 253 은평서해그랑블,37.61705,126.906586
ST-2257,58.48456656056331,서울특별시 은평구 가좌로 255,37.591812,126.914833
ST-2242,57.1797976554013,서울특별시 은평구 불광동 70-1,37.62672,126.929016
ST-2778,53.96328839282734,서울특별시 은평구 통일로760,37.613262,126.927864
ST-33,53.51338926499089,서울특별시 서대문구 증가로 264북가좌동354-4,37.584171,126.911102
ST-1029,52.661672936950154,서울특별시 녹번동 84은평구청 보건소,37.602402,126.92865
ST-2156,52.126982416594466,서울특별시 마포구 합정동 473-2,37.551754,126.9123
ST-211,52.086399815649095,서울특별시 마포구 망원동 477-23마포구청역,37.560909,126.905495
ST-2168,50.83035464174986,서울특별시 마포구 동교동 155-6,37.558296,126.925385
ST-555,49.22662785464606,서울특별시 서대문구 거북골로 34서대문구 거북골로 34,37.581097,126.924026
ST-2785,49.1925950069348,서울특별시 은평구 은평로220,37.600346,126.93148
ST-1033,48.041607253091215,서울특별시 불광동 484-165연신내 선일하이츠빌 정류소,37.622669,126.919991
ST-2979,47.8134875492673,서울특별시 마포구 마포구 연남로 42 코오롱아파트사거리,37.563038,126.921433
ST-2781,47.54120354073705,서울특별시 은평구 진관2로,37.633907,126.931778
ST-2160,47.54090315842118,서울특별시 마포구 성산동 594,37.565044,126.903603
ST-2777,46.75142391292651,서울특별시 은평구 응암로291,37.597504,126.919998
ST-2240,46.367973925873606,서울특별시 용산구 이촌동 304-11,37.517319,126.958298
ST-350,44.7498687148366,서울특별시 서대문구 불광천길 36증산교 앞,37.577316,126.902969
ST-20,43.51603541598623,서울특별시 마포구 양화로18길 3192-5,37.55706,126.924423
ST-5,43.28354813295204,서울특별시 마포구 월드컵로 79378-18,37.554951,126.910835
ST-938,42.585531228404456,서울특별시 종로구 홍지문길 1상명대 입구,37.600128,126.957832
ST-2246,40.258442521705504,서울특별시 은평구 통일로 602-1 지하철3호선 녹번역,37.601009,126.935928
ST-4,39.858641864335176,서울특별시 마포구 월드컵로 72475-54,37.555649,126.910629
ST-85,39.74884568443171,서울특별시 마포구 월드컵북로47길 101,37.566246,126.896179
ST-2252,39.15177797795809,서울특별시 은평구 가좌로 316 상신교회,37.59581,126.910263
ST-342,38.70784215065028,서울특별시 마포구 월드컵로 119SK망원동주유소 건너편,37.558949,126.907753
ST-2536,38.667423830995375,서울특별시 마포구 마포구 성산동 275-26,37.564156,126.90815
ST-473,38.33560762619215,서울특별시 은평구 불광동 285-43불광역 2번출구,37.609566,126.930977
ST-426,38.25240202301949,서울특별시 영등포구 당산로52길 3당산육갑문,37.535339,126.903679
ST-2213,37.888387590534705,서울특별시 서대문구 홍은동 274-18,37.581318,126.935997
ST-1032,37.44284938445054,서울특별시 불광로 129독바위역,37.618439,126.932884
ST-3095,35.79457567844069,서울특별시 은평구 수색로 194,37.578907,126.901299
ST-1484,35.40793438732988,서울특별시 은평구 불광로 90대호프라자아파트,37.614429,126.932579
ST-1491,35.24207247074548,서울특별시 서대문구 통일로 지하 440-1홍제삼거리 북측,37.5867,126.94677
ST-2031,35.20251995790353,서울특별시 강서구 마곡중앙5로 2 마곡나루역(9호선),37.566925,126.827438
ST-2775,34.588736232417,서울특별시 은평구 은평로127,37.600494,126.922157
ST-2825,34.5626795748731,서울특별시 은평구 은평구 응암로 278 맞은편(응암동 767-1 공원 앞),37.596127,126.919624
ST-463,33.39777101919323,서울특별시 은평구 증산동 199-8증산역 4번출구,37.584381,126.909897
ST-8,33.04163629076649,서울특별시 마포구 독막로 4381-1,37.548645,126.912827
ST-1619,32.04341527555047,서울특별시 종로구 사직로8길 31서울지방경찰청,37.574364,126.972366
ST-1482,31.714865087193683,서울특별시 은평구 통일로 732불광역 9번 출구,37.61097,126.92981
ST-1479,31.363920573649388,서울특별시 은평구 은평로 136신한은행 응암동 지점 앞,37.600361,126.922813
ST-2206,29.77092759970969,서울특별시 서대문구 북가좌동 487-1,37.570652,126.912987
ST-2216,29.243245352400443,서울특별시 서대문구 남가좌동 385-7,37.572159,126.921188
ST-2157,28.978744464604027,서울특별시 마포구 성미산로29길 17-3 은행나무어린이공원 화장실,37.564651,126.922127
ST-339,28.433703445308264,서울특별시 마포구 마포나루길 467망원초록길 입구,37.551342,126.902672
ST-202,28.349458699989718,서울특별시 마포구 공덕동 438-5공덕역 8번출구,37.543579,126.951324
ST-349,28.05237057520081,서울특별시 서대문구 북가좌동 352-9증산3교 앞,37.579876,126.906349
ST-1025,27.44645313951639,서울특별시 응암동 82-31은평구청 교차로,37.6017,126.927422
ST-347,26.991069345134406,서울특별시 서대문구 응암로 66정명학원,37.578892,126.910736
ST-478,26.957121856644488,서울특별시 은평구 역촌동 41-7구 서부경찰서 건너편,37.601662,126.920303
ST-204,26.59280031691948,서울특별시 마포구 도화동 555-2마포역 1번출구 뒤,37.539936,126.945824
ST-3279,25.775193036355592,서울특별시 은평구 은평터널로 15,37.583694,126.894127
ST-351,25.708934528819718,서울특별시 서대문구 연희동 446-76모래내고가차도,37.567657,126.917809
ST-341,25.482330327401247,서울특별시 마포구 연남동 365-19,37.565388,126.919327
ST-2470,25.466352318643725,서울특별시 은평구 불광로 41 LG Bestshop 불광점,37.611568,126.930489
ST-3113,25.416574684359343,서울특별시 서대문구 남가좌동 318-20,37.576019,126.926834
ST-94,25.390340798960708,서울특별시 마포구 매봉산로2길 16상암동주민센터 옆,37.57822,126.89447
ST-2253,25.376260427307503,서울특별시 은평구 은평로 170 상현빌딩,37.601192,126.926384
ST-223,25.251677919931037,서울특별시 서대문구 남가좌동 385-16,37.573818,126.919235
ST-83,25.12608669895108,서울특별시 마포구 상암산로1길 71마포구 육아보육정보센터 앞,37.580631,126.883675
ST-95,24.995013735796675,서울특별시 마포구 성암로 지하184디지털미디어시티역 9번출구 앞,37.577469,126.897362
ST-3272,24.55487409935081,서울특별시 마포구 성중길 82,37.57402,126.901024
ST-2147,24.179625691852028,서울특별시 마포구 월드컵북로 494 푸르메재단넥슨어린이재활병원,37.584568,126.880211
ST-231,24.134242287553015,서울특별시 서대문구 모래내로 286 홍은2공중화장실,37.578068,126.930885
ST-82,24.051291252105,서울특별시 마포구 월드컵로 212 마포구청,37.565746,126.901863
ST-210,24.04044454890297,서울특별시 마포구 성산동 54-17성산2교 사거리,37.564697,126.912613
ST-2167,23.99672687179561,서울특별시 마포구 월드컵북로 9-1,37.55584,126.920433
ST-1485,23.946287544267367,서울특별시 은평구 통일로 796 북한산 힐스테이트7차,37.616543,126.925125
ST-2208,23.79326537079083,서울특별시 서대문구 남가좌동 385-13,37.572254,126.9151
ST-205,23.764789610071723,서울특별시 마포구 도화동 292-29마포역 4번출구 뒤,37.539272,126.945915
ST-73,23.593167653601697,서울특별시 영등포구 여의동로 지하343여의나루역 1번출구 앞,37.527157,126.9319
ST-3139,23.465791434124153,서울특별시 서대문구 연희동 735,37.57914,126.934509
ST-2205,23.395704734170394,서울특별시 서대문구 남가좌동 105-4,37.569836,126.918091
ST-2177,23.163695303271176,서울특별시 용산구 한강로2가 408-5,37.528488,126.965843
ST-2956,23.02354062822424,서울특별시 은평구 응암동 159-3,37.599545,126.926537
ST-2210,22.79590231232105,서울특별시 서대문구 연희동 747-3,37.575642,126.927826
ST-6,22.687752624601,서울특별시 마포구 양화로 61 두암빌딩,37.550739,126.915085
ST-2146,22.397231686233837,서울특별시 마포구 용강동 494-6,37.54364,126.938309
ST-32,22.25116691331317,서울특별시 마포구 신촌로 9431-123,37.554859,126.936157
ST-2974,22.11071846541603,서울특별시 마포구 MBC본사와 디지털매직스페이스 건물 사이 횡단보도 2개 중간,37.5812,126.88958
ST-470,22.081558897214762,서울특별시 은평구 대조동 227-2연신내역 4번출구,37.617802,126.921967
ST-110,21.94492463513813,서울특별시 마포구 구룡길 19상암한화오벨리스크 1차 앞,37.587524,126.883003
ST-2212,21.874135546059208,서울특별시 서대문구 홍은동 424-1,37.583336,126.936287
ST-2204,21.839715204891668,서울특별시 서대문구 연희로 78 SK삼보주유소,37.565197,126.929855
ST-2897,21.773600234660186,서울특별시 서대문구 남가좌동 384-3,37.575043,126.917366
ST-206,21.624338322698666,서울특별시 마포구 용강동 234-1용강동 주민센터 앞,37.542347,126.943024
ST-2425,21.583658559188528,서울특별시 은평구 신사동 371-1,37.599316,126.907593
ST-443,21.51988522792676,서울특별시 마포구 성산동 515서울 월드컵 경기장,37.566845,126.896446
ST-93,21.471856843642442,서울특별시 은평구 수색로 지하175디지털미디어시티역 2번출구 앞,37.575069,126.899918
ST-1692,21.319140550961965,서울특별시 마포구 모래내로 31성산2-1 공영주차장,37.56472,126.906769
ST-968,20.999155536654804,서울특별시 마포구 성산동 661,37.568977,126.894402
ST-2530,20.962028443032708,서울특별시 마포구 마포구 창전동 246-34,37.547379,126.931633
ST-2776,20.862719329711293,서울특별시 은평구 통일로,37.601768,126.935425
ST-3239,20.778860317920476,서울특별시 영등포구 여의대로 128,37.528347,126.930084
ST-2533,20.76508231256706,서울특별시 마포구 마포구 중동 275,37.569492,126.911842
ST-9,20.729835354558123,서울특별시 마포구 월드컵북로 35449-28,37.55751,126.918503
ST-340,20.542746216934937,서울특별시 마포구 합정동 450-47,37.551365,126.903061
ST-3114,20.436376126934437,서울특별시 서대문구 홍은동 387-61,37.577168,126.929062
ST-1754,20.18437004633309,서울특별시 마포구 하늘공원로 108,37.570122,126.881348
ST-21,20.006571220865947,서울특별시 마포구 구수동 68-18,37.545208,126.931465
ST-232,19.962118368515394,서울특별시 서대문구 수색로 27 가좌역,37.568775,126.915298
ST-3017,19.708447881584764,서울특별시 마포구 서울 마포구 합정동 50-15,37.545296,126.917648
ST-10,19.596638766759057,서울특별시 마포구 양화로 93427,37.552746,126.918617
ST-1397,19.58197959431006,서울특별시 마포구 월드컵북로 260성산시영아파트,37.569584,126.903816
ST-2152,19.22070745323774,서울특별시 마포구 동교동 190-66,37.556576,126.928856
ST-222,19.177832059062176,서울특별시 서대문구 북가좌동 470-1모래내 우체국,37.575138,126.91394
ST-15,19.028841884211584,서울특별시 마포구 와우산로 40309-10,37.547871,126.923531
ST-1488,18.904001276034396,서울특별시 은평구 통일로 684 서울혁신파크,37.608498,126.931999
ST-1034,18.61842009720976,서울특별시 증산동 239디지털미디어 시티역 4번출구,37.577202,126.902351
ST-2975,18.550816842253543,서울특별시 마포구 마포구 창전동15-1,37.549854,126.932037
ST-1190,18.42086486120947,서울특별시 서대문구 연희로 113,37.567997,126.931656
ST-1910,18.3385792060115,서울특별시 서초구 신반포로 165 반포쇼핑타운,37.505608,127.002159
ST-3008,18.160890253852333,서울특별시 마포구 마포구 염리동 160-68,37.545685,126.94677
ST-366,18.019458395599603,서울특별시 성동구 옥수동 192-2,37.541367,127.017761
ST-2195,17.97873123523694,서울특별시 서대문구 연희로41길 4 현대상가,37.589283,126.936943
ST-16,17.629614099118275,서울특별시 마포구 와우산로 5689-2,37.549202,126.923203
ST-2977,17.49979547873317,서울특별시 마포구 서울 마포구 월드컵로42길 13,37.578922,126.882164
ST-346,17.295483308200293,서울특별시 서대문구 연희로37안길 51홍은동 정원여중 입구,37.586388,126.935127
ST-86,17.12099348103604,서울특별시 마포구 월드컵북로 396누리꿈스퀘어 옆,37.579399,126.88916
ST-1487,16.534394564930047,서울특별시 은평구 녹번동 7-4,37.609447,126.934677
ST-3033,16.39144383996602,서울특별시 서대문구 홍은동 387-61,37.576756,126.928276
ST-2247,16.016468990224954,서울특별시 은평구 신사동 178-9,37.591862,126.906082
ST-227,15.971133009915665,서울특별시 서대문구 남가좌동 124가재울 뉴타운 주유소 옆,37.573112,126.922447
ST-343,15.553130206360112,서울특별시 마포구 현석동 106-32마포 신수공원 앞,37.542545,126.934296
ST-297,15.389170605955496,서울특별시 영등포구 여의동로 300-2 가로판매대50,37.524349,126.936119
ST-683,15.229822410540617,서울특별시 동작구 노량진로 지하 238동작구 본동 344-10,37.512844,126.952469
ST-2150,14.995576768489169,서울특별시 마포구 상암동 1761,37.575977,126.888069
ST-2164,14.881524577868523,서울특별시 마포구 상암동 1727,37.5793,126.887314
ST-2045,14.62280461382854,서울특별시 강서구 마곡동로 115,37.565804,126.828079
ST-345,14.54448840792632,서울특별시 서대문구 북가좌동 427-1,37.577637,126.909653
ST-3140,14.517467210467206,서울특별시 서대문구 연세로5나길 19 신촌. 파랑고래,37.556877,126.936035
ST-207,14.477580706164458,서울특별시 마포구 노고산동 112-13서강대역 2번출구 앞,37.552956,126.934341
ST-1344,14.342097445946315,서울특별시 용산구 한남동 557-106,37.528988,127.006622
ST-47,14.310502241971419,서울특별시 영등포구 여의공원로 101101,37.528816,126.92453
ST-2149,14.30550049694826,서울특별시 마포구 상암동 1594,37.582077,126.887665
ST-77,14.178415137353564,서울특별시 마포구 상암동 1748-1,37.582928,126.879837
ST-212,13.957713484542317,서울특별시 마포구 성암로 28 가좌행복주택,37.568295,126.915047
ST-3062,13.915301508497176,서울특별시 서대문구 연희동 222-1,37.563557,126.928276
ST-442,13.88651082185401,서울특별시 용산구 서빙고로 279서빙고동 주민센터 앞,37.520336,126.994263
ST-2165,13.876714765442648,서울특별시 마포구 상암동 1695,37.581982,126.89045
ST-3125,13.675218449348122,서울특별시 강서구 공항대로 543 센터스퀘어,37.550648,126.866165
ST-26,13.47743460303049,서울특별시 마포구 서강로16길 7284-5,37.55114,126.936989
ST-201,13.455293890233644,서울특별시 마포구 공덕동 257-88공덕역 2번출구,37.544579,126.950218
ST-90,13.412340337182211,서울특별시 마포구 월드컵북로 366DMC홍보관,37.577995,126.891472
ST-91,13.322433541541438,서울특별시 마포구 상암동 1718,37.575657,126.890793
ST-2154,13.275408217972771,서울특별시 마포구 토정로37길 46 정우빌딩,37.542431,126.946999
ST-992,13.214140056937913,서울특별시 마포구 마포대로 163서울신용보증재단,37.549061,126.954178
ST-7,13.193133292868676,서울특별시 마포구 양화로 48394-95,37.550007,126.914825
ST-92,13.18639780646332,서울특별시 마포구 매봉산로 8상암월드컵파크 3단지 후문,37.571476,126.889687
ST-3072,13.013705652414307,서울특별시 영등포구 여의대로 70 신한금융투자타워여의대로 70,37.525089,126.92408
ST-2450,12.961147152732282,서울특별시 용산구 한강대로 26,37.523018,126.96241
ST-3019,12.87047113426606,서울특별시 마포구 서울 마포구 독막로 8,37.547588,126.924644
ST-692,12.796704908719791,서울특별시 동작구 현충로 지하 90동작구 흑석동 2-28,37.50938,126.963615
ST-2535,12.582849192658548,서울특별시 마포구 마포구 상암동 1758,37.583321,126.881561
ST-220,12.577926705466375,서울특별시 서대문구 홍은동 산25-3명지전문대학교 정문 앞,37.583698,126.924965
ST-2815,12.575552383365396,서울특별시 영등포구 영등포구 영등포4가 442-6,37.518036,126.903648
ST-2779,12.567185359799726,서울특별시 은평구 은평로85 CJ드림시티 A동,37.59967,126.91716
ST-2332,12.549010691988308,서울특별시 성동구 금호로 15 서울숲푸르지오아파트,37.544041,127.023201
ST-277,12.197613643089577,서울특별시 영등포구 양화동 17-4양평2나들목 보행통로 입구,37.544666,126.888359
ST-76,12.126625249804402,서울특별시 마포구 월드컵북로 502-36상암월드컵파크 10단지 앞,37.586189,126.881615
ST-750,12.116853018197633,서울특별시 서초구 신반포로 지하 188서초구 잠원동 101,37.506199,127.003944
ST-2557,12.049331781757537,서울특별시 강서구 강서구 화곡로 347,37.555107,126.851547
ST-348,12.046565626055926,서울특별시 서대문구 연희동 519-7연서어린이공원,37.572227,126.923065
ST-2217,11.920346654783106,서울특별시 서대문구 홍제동 295-33,37.591862,126.944214
ST-221,11.825757068613694,서울특별시 서대문구 북가좌동 477-1북가좌1동 주민센터,37.574478,126.910049
ST-81,11.653159823466378,서울특별시 마포구 월드컵로42길 22,37.581112,126.880875
ST-2207,11.631508838188934,서울특별시 서대문구 북가좌동 474-2,37.574284,126.906464
ST-1486,11.456157872272508,서울특별시 은평구 백련산로 90서울특별시 은평병원,37.593479,126.923187
ST-28,11.387193554170835,서울특별시 마포구 대흥로 12238-16,37.550411,126.943848
ST-295,11.3139694119905,서울특별시 영등포구 당산로 222 당산디오빌,37.533421,126.902237
ST-55,11.275866727077844,서울특별시 영등포구 국제금융로 2424-3,37.524612,126.927834
ST-2534,11.24095637773758,서울특별시 마포구 마포구 합정동 412-34,37.548302,126.916718
ST-3130,11.224742731177002,서울특별시 마포구 대흥로20길 28 마포아트센터,37.550343,126.945801
ST-99,11.19863425227331,서울특별시 광진구 능동로 10뚝섬유원지역 1번출구 앞,37.53186,127.067192
ST-2518,11.158918387258382,서울특별시 중구 태평로1가 60-20,37.567017,126.976837
ST-296,11.139928055744717,서울특별시 영등포구 여의도동8-13초원아파트 앞,37.531055,126.92421
ST-96,11.059036271531356,서울특별시 마포구 월드컵북로 502-7상암월드컵파크 1단지,37.575665,126.894447
ST-1827,10.94421893022854,서울특별시 종로구 비봉길 12,37.609501,126.95668
ST-3160,10.810354200534231,서울특별시 영등포구 국제금융로7길 27 삼부아파트,37.525394,126.930458
ST-2469,10.78048792579772,서울특별시 용산구 한강로1가 1-1,37.539322,126.97319
ST-1065,10.664095393764093,서울특별시 강서구 마곡동 797-5,37.558949,126.837173
ST-3127,10.598221491547044,서울특별시 은평구 역촌동 233-1,37.603542,126.906723
ST-2874,10.361836686841507,서울특별시 마포구 마포구 합정동454-23,37.550068,126.9048
ST-2037,10.352049085867353,서울특별시 강서구 마곡동 727-1243,37.563206,126.839363
ST-2561,10.312418752416775,서울특별시 서대문구 서대문구 홍은동 11-7,37.601696,126.949165
ST-2537,10.268870135723482,서울특별시 마포구 상암산로 48-6 중앙일보빌딩,37.577305,126.890183
ST-203,10.258972099014741,서울특별시 마포구 공덕동 237-9공덕역 5번출구,37.54425,126.951637
ST-702,9.904845303730594,서울특별시 관악구 신림동 1467-13,37.484085,126.926888
ST-278,9.890630349391643,서울특별시 영등포구 양평동4가 202-1선유도역 3번출구 앞,37.53846,126.894508
ST-448,9.869713922066522,서울특별시 은평구 녹번동 85-4은평예술회관,37.603943,126.927696
ST-23,9.843272012246198,서울특별시 마포구 창전로 76100-18,37.549767,126.933174
ST-1691,9.79005717773678,서울특별시 마포구 대흥동 105-4,37.54847,126.940926
ST-37,9.683613383371826,서울특별시 서대문구 명물길 65,37.559227,126.939842
ST-1341,9.557988811255932,서울특별시 용산구 백범로 지하 287효창공원앞역 3번출구 뒤,37.539009,126.96138
ST-3244,9.493680540709894,서울특별시 마포구 월드컵북로38길 53 월드컵참누리아파트,37.572124,126.905975
ST-1343,9.441741348456341,서울특별시 용산구 원효로 74현대자동차서비스 앞,37.531422,126.9515
ST-1326,9.38590739182294,서울특별시 용산구 한강대로 23베르가모앞,37.52293,126.961693
ST-12,9.368669239903202,서울특별시 서대문구 연희로 6516,37.558933,126.927116
ST-413,9.334728216236124,서울특별시 영등포구 당산로 111-2영등포구청역 1번출구,37.524635,126.896217
ST-376,9.305506234606325,서울특별시 성동구 마장로39길 51청계천 생태교실 앞,37.56797,127.04689
ST-30,9.254560618359394,서울특별시 서대문구 연세로 3-530-16,37.555496,126.93634
ST-3142,9.080398502282108,서울특별시 영등포구 경인로 846 영등포 민자역사,37.516693,126.908073
ST-3083,9.036148332547736,서울특별시 용산구 용산동6가 69-170,37.517941,126.983704
ST-1150,8.987703452222716,서울특별시 동작구 노량진동 113-7노량진동 맥도널드앞,37.513523,126.943527
ST-2262,8.958009407972128,서울특별시 은평구 불광동 2-1,37.610508,126.938538
ST-1493,8.914948609318472,서울특별시 서대문구 통일로 553홍은센트레빌 아파트 앞,37.597149,126.93853
ST-1251,8.900082093717476,서울특별시 강서구 양천로 지하 341양천향교역 7번출구 앞,37.56768,126.840897
ST-84,8.897797934421654,서울특별시 마포구 월드컵북로 424LG CNS앞,37.580811,126.88665
ST-124,8.769149322401049,서울특별시 종로구 새문안로 82광화문S타워 앞,37.569969,126.973938
ST-39,8.579014098903057,서울특별시 서대문구 연세로2다길 5860-11,37.556812,126.943184
ST-1443,8.536696714522622,서울특별시 용산구 한강대로 100신용산역 1번 출구,37.52961,126.968872
ST-24,8.478039092787284,서울특별시 마포구 독막로 223-150-2,37.547459,126.938377
ST-748,8.461242959131706,서울특별시 서초구 신반포로 지하 105서초구 반포동 128-1,37.504116,126.99749
ST-2188,8.397503516677078,서울특별시 용산구 한남동 704-11,37.535141,127.006004
ST-2184,8.256200868411618,서울특별시 용산구 이촌동 429,37.520748,126.970825
ST-2042,8.252561002620975,서울특별시 강서구 마곡동로 161 서울식물원,37.568836,126.835632
ST-214,8.2481904787029,서울특별시 마포구 아현동 607-1애오개역 4번출구 앞,37.553001,126.956688
ST-130,8.19464848342586,서울특별시 종로구 삼청로 30국립현대미술관 서울관,37.579708,126.980858
ST-42,8.187056590449684,서울특별시 서대문구 연세로 5027,37.562382,126.932648
ST-2981,8.164123543418517,서울특별시 마포구 서울시 마포구 성암로 179,37.576492,126.898674
ST-1674,8.147183919017762,서울특별시 은평구 갈현로3나길 23역촌 센트레빌 아파트 107동 인근,37.602329,126.906548
ST-935,8.113422069653785,서울특별시 서초구 동작대로 138 소방빌딩,37.488972,126.982719
ST-2166,8.103589909763693,서울특별시 마포구 상암동 1133,37.577114,126.898361
ST-3020,8.07615058924044,서울특별시 마포구 서울서부지방법원등기국앞,37.551849,126.954781
ST-2990,8.067660191603292,서울특별시 서대문구 서대문구 연희동 150-11,37.575401,126.93544
ST-3105,8.039694410798711,서울특별시 동작구 보라매로5길 20 서울특별시보라매병원,37.493221,126.923431
ST-36,7.992103426495078,서울특별시 서대문구 명물길 3331-69,37.557892,126.93808
ST-1339,7.991149048889594,서울특별시 용산구 이촌로71길 24이촌1동 주민센터 뒤,37.521282,126.973465
ST-932,7.946754391300365,서울특별시 동작구 현충로 지하 90동작구 현충로 104,37.508587,126.963493
ST-2215,7.875285020591322,서울특별시 서대문구 남가좌동 385-16,37.574551,126.918266
ST-226,7.743720045101863,서울특별시 서대문구 북가좌동 400북가좌 삼거리,37.573002,126.907799
ST-2528,7.739406545059574,서울특별시 마포구 마포구 마포대로 122,37.545853,126.952599
ST-522,7.7336623210112485,서울특별시 강서구 내발산동 645,37.558178,126.838455
ST-990,7.491333619257351,서울특별시 상암동 1715-29롯데하이마트 (상암월드컵점),37.57362,126.898048
ST-2214,7.411647016036846,서울특별시 서대문구 수색로 100 DMC래미안e편한세상,37.576263,126.911324
ST-699,7.372746916796192,서울특별시 동작구 노량진로 지하 130노량진동 60-11,37.513248,126.939972
ST-307,7.340643298470349,서울특별시 영등포구 신길동1368대방역6번출구,37.513592,126.925934
ST-1317,7.24506518291864,서울특별시 성북구 종암로 지하 1고려대학교 2번출구,37.590714,127.036194
ST-2491,7.159214799856888,서울특별시 강서구 양천로47길 112,37.575317,126.83667
ST-1446,7.15337395262747,서울특별시 용산구 이촌로14길 7이촌2동 동원베네스트 아파트 앞,37.527149,126.955162
ST-40,7.129870803437201,서울특별시 서대문구 증가로 264342-14,37.559177,126.934525
ST-2531,7.117506326589889,서울특별시 마포구 마포구 서교동 445-7,37.557308,126.918854
ST-2827,7.049790213642846,서울특별시 동작구 매봉로 34,37.504444,126.950256
ST-2494,6.981330069578344,서울특별시 강서구 강서구 염창동 223-4번지,37.556805,126.871559
ST-3021,6.884994247229041,서울특별시 마포구 신촌로 134,37.556011,126.940346
ST-1195,6.846100143565143,서울특별시 성동구 고산자로 123응봉동 3-10,37.55125,127.035103
ST-118,6.832758638563112,서울특별시 종로구 사직로 지하130경복궁역 4번출구 뒤,37.575947,126.97406
ST-664,6.806062222056174,서울특별시 구로구 경인로 688구로구 신도림동 348-1,37.50972,126.890099
ST-22,6.7759471423932425,서울특별시 마포구 토정로 211371-11,37.545242,126.934113
ST-1351,6.741492491867266,서울특별시 강서구 강서로62길 48강서구립등빛도서관,37.562569,126.842461
ST-2350,6.630092656086955,서울특별시 동작구 노량진로 250,37.511936,126.954163
ST-457,6.610882366694645,서울특별시 은평구 응암동 761-9백련산 힐스테이트 3차,37.586994,126.922882
ST-2688,6.5778779256238575,서울특별시 강남구 압구정동 507,37.53075,127.041603
ST-1971,6.557814930438863,서울특별시 영등포구 여의서로 60-2 가로판매대22,37.531792,126.922455
ST-2153,6.4750843351142775,서울특별시 마포구 독막로 192 신수동주민센터,37.547245,126.935028
ST-435,6.474912439431101,서울특별시 용산구 한강대로 115신용산역 6번출구 앞,37.530148,126.968483
ST-421,6.428218913972352,서울특별시 영등포구 양평로 76삼성화재 사옥 옆,37.535961,126.8983
ST-218,6.387736048574682,서울특별시 서대문구 통일로 380-4무악재역1번 출구,37.582245,126.950645
ST-438,6.365490033049276,서울특별시 용산구 원효로97길 33-4선린인터넷 고등학교,37.541653,126.970505
ST-326,6.354856845051866,서울특별시 용산구 문배동 34-10문배어린이공원 앞,37.536758,126.970001
ST-1441,6.347067417715155,서울특별시 용산구 보광로5길 40보광동 삼성리버빌아파트 앞,37.52401,127.00145
ST-520,6.338985683778951,서울특별시 강서구 허준로 221-40 공원관리사무실,37.561924,126.864166
ST-1611,6.3371547136784185,서울특별시 종로구 세종대로 152 일민미술관,37.569893,126.97757
ST-446,6.3250187788316845,서울특별시 성동구 성수동2가 569-3성수2가1동 공영주차장 인근,37.536808,127.055489
ST-52,6.227794331160121,서울특별시 영등포구 의사당대로 9797,37.526264,126.920509
ST-2148,6.185986839447244,서울특별시 마포구 월드컵북로 456,37.583202,126.882767
ST-3094,6.181198292664665,서울특별시 강서구 화곡로 416 가양역 더스카이밸리5차 지식산업센터,37.560196,126.854912
ST-513,6.174472897165861,서울특별시 강서구 마곡서로 175강서구 마곡동 754-6,37.568577,126.824776
ST-3076,6.170303391403454,서울특별시 은평구 응암동 225-72,37.595867,126.923492
ST-1002,6.166443962510438,서울특별시 양천구 목동동로 316-6서울시 도로환경관리센터,37.5299,126.876541
ST-1718,6.126734485011551,서울특별시 강서구 마곡중앙5로 지하 2마곡나루역(공항철도) 5번출구 뒤편,37.565201,126.827316
ST-437,6.0894491067613,서울특별시 용산구 청파로47길 100숙명여대 입구 교차로,37.544895,126.969383
ST-88,6.0751735474508255,서울특별시 마포구 상암동 1691,37.577393,126.887474
ST-80,6.05504007682146,서울특별시 마포구 월드컵북로60길 13DMC빌 앞,37.582657,126.885788
ST-1689,6.0390694319504155,서울특별시 강서구 마곡중앙로 76힐스테이트에코마곡역,37.560242,126.827164
ST-946,6.038420244307678,서울특별시 중구 퇴계로 33서울역 서부교차로2,37.555367,126.968643
ST-2487,6.03037291768262,서울특별시 강서구 공항대로45길68-6,37.557552,126.856255
ST-919,6.026901148088593,서울특별시 구로구 경인로 445구로구 고척동 63-3,37.499889,126.867699
ST-2006,6.008191900281891,서울특별시 양천구 안양천로 812 공중화장실,37.517338,126.877647
ST-1223,5.9810966281883315,서울특별시 구로구 구로동 3-42,37.508183,126.891335
ST-1189,5.962743076689272,서울특별시 서대문구 연희로 242서대문구청,37.578381,126.936096
ST-1823,5.962258753047767,서울특별시 종로구 무악동 32-3,37.575016,126.95755
ST-51,5.945747672274017,서울특별시 영등포구 국회대로 지하758758,37.528057,126.918701
ST-2024,5.915472271346701,서울특별시 강서구 가양동 18-23,37.564682,126.848907
ST-1828,5.792296272589869,서울특별시 종로구 구기동 110-22,37.607601,126.957687
ST-1376,5.7467810507537695,서울특별시 용산구 한강대로 지하 306숙대입구역 4번출구,37.54446,126.972389
ST-2532,5.733648283662518,서울특별시 마포구 마포구 동교동 205-6,37.55666,126.919868
ST-923,5.706761102345508,서울특별시 동작구 사당로 지하 310동작구 사당동 144-4,37.485508,126.981621
ST-1249,5.699109777251245,서울특별시 강서구 양천로 지하 485가양역 8번출구,37.561035,126.854813
ST-19,5.680022143284823,서울특별시 마포구 독막로 지하165243-3,37.547733,126.931763
ST-3051,5.666290758684675,서울특별시 서대문구 충정로2가 8-3,37.56599,126.966072
ST-219,5.6661370167379035,서울특별시 서대문구 대신동 143-1,37.566261,126.946671
ST-831,5.645390019298813,서울특별시 강서구 방화동 829-11,37.577106,126.811996
ST-213,5.5875514843510885,서울특별시 마포구 공덕동 105-259,37.549332,126.954918
ST-292,5.580592566284965,서울특별시 영등포구 양평동3가 48-1이앤씨드림타워 앞,37.527084,126.89138
ST-668,5.576499768239918,서울특별시 구로구 시흥대로 577-2구로구 구로동 1119,37.48494,126.901321
ST-753,5.573655474448546,서울특별시 동작구 동작대로 지하 3서초구 방배동 495-3,37.478069,126.982033
ST-1506,5.553936697237514,서울특별시 강서구 공항대로 625염창역 1번 출구,37.547199,126.874489
ST-1923,5.510220466778039,서울특별시 서초구 잠원로14길 10,37.520267,127.015251
ST-3082,5.494749336797682,서울특별시 용산구 청파로 312,37.547337,126.970383
ST-200,5.492113147180238,서울특별시 마포구 아현동 329-15아현역 4번출구 앞,37.557201,126.955666
ST-977,5.489602121073604,서울특별시 중구 덕수궁길 61 서울시립미술관,37.565052,126.973404
ST-1990,5.473818214440451,서울특별시 영등포구 영등포동 618-9,37.514847,126.90773
ST-1492,5.467818113872202,서울특별시 마포구 신촌로 지하 270e편한세상 신촌4단지 앞,37.558128,126.956207
ST-1701,5.46726463115887,서울특별시 영등포구 버드나루로 125충북 미래관,37.529171,126.907578
ST-2924,5.454732936587532,서울특별시 용산구 한강로2가 220-4,37.527035,126.966179
ST-3086,5.419753287731697,서울특별시 서초구 방배중앙로 207-10 아크로리버,37.498173,126.984482
ST-1539,5.414984723722084,서울특별시 영등포구 선유로 213선유중학교 정문,37.532101,126.89444
ST-31,5.414981815483137,서울특별시 마포구 신촌로 10631-123,37.555054,126.937569
ST-327,5.40994140655326,서울특별시 용산구 한강로3가 16-8전자랜드 본관 앞,37.533066,126.960732
ST-1352,5.4096812500850575,서울특별시 강서구 내발산동 751-3,37.553509,126.825867
ST-334,5.399592337037098,서울특별시 용산구 한강로1가 228-1삼각지역 3번출구,37.533512,126.972275
ST-2456,5.398358387206846,서울특별시 용산구 한강대로 52-1,37.52544,126.9646
ST-331,5.37693582263078,서울특별시 용산구 용산동2가 5-1812이태원지하보도,37.53841,126.986649
ST-2201,5.299483216547755,서울특별시 서대문구 신촌로 103-2,37.555504,126.937202
ST-2196,5.2873717163193135,서울특별시 서대문구 통일로 357 무악재한화아파트,37.582211,126.950165
ST-3187,5.243377001784637,서울특별시 영등포구 당산로 220-2 구두수선대50,37.53363,126.901459
ST-2033,5.225941232842587,서울특별시 강서구 마곡중앙8로 71 엘지사이언스파크,37.561337,126.8339
ST-1064,5.1696717414866145,서울특별시 강서구 마곡동 728-168마곡역7번출구,37.558311,126.826523
ST-2029,5.156677959116891,서울특별시 강서구 화곡동 19-2,37.548534,126.846672
ST-1321,5.149523917068753,서울특별시 영등포구 경인로112길 1SK영등포주유소,37.518284,126.912636
ST-2020,5.145692426213446,서울특별시 강서구 화곡로 398 홈플러스강서점앤본사사옥,37.558521,126.854012
ST-198,5.086398579878451,서울특별시 중구 신당동 99신당역 5번 출구,37.565849,127.016403
ST-2814,5.075142909345145,서울특별시 영등포구 63로 33-2 가로판매대56,37.52071,126.939659
ST-777,5.057091745685249,서울특별시 강남구 압구정로 134현대고등학교 건너편,37.524071,127.02179
ST-728,5.0391610819633055,서울특별시 동작구 상도로 지하 76동작구 상도동 329-2,37.499855,126.929565
ST-43,5.03182269144794,서울특별시 서대문구 창천동 84-16,37.559864,126.934418
ST-285,5.013411777010676,서울특별시 영등포구 문래동3가 68-1문래동자이아파트 앞,37.516155,126.894615
ST-3235,4.973459126941923,서울특별시 영등포구 버드나루로 15,37.520241,126.912453
ST-1986,4.954346121295544,서울특별시 영등포구 당산동 121-317,37.529743,126.907829
ST-3226,4.950966701331509,서울특별시 강서구 강서로56길 49 원당공원화장실,37.559475,126.841476
ST-3238,4.920143614404279,서울특별시 영등포구 영등포로 244 로프트시티,37.519062,126.908394
ST-2040,4.911789447315001,서울특별시 강서구 마곡동 789-10,37.560894,126.836693
ST-1545,4.9059549700749985,서울특별시 동작구 노량진로 155노량진역 2번 출구 앞,37.51392,126.943069
ST-289,4.899956272408838,서울특별시 영등포구 문래동3가 55-12문래역 4번출구 앞,37.518738,126.895576
ST-2553,4.895648552813154,서울특별시 강서구 염창동 119,37.551952,126.876709
ST-167,4.888209349655164,서울특별시 종로구 청운동 108-25,37.584969,126.970413
ST-1649,4.8539661203959295,서울특별시 영등포구 양산로 213아크로타워 스퀘어(영등포시장),37.522518,126.907219
ST-53,4.8345307090891385,서울특별시 영등포구 여의공원로 1313,37.524666,126.918022
ST-64,4.807695429773537,서울특별시 영등포구 국제금융로7길 37여의도고등학교 앞,37.524837,126.934906
ST-2438,4.801047404096728,서울특별시 용산구 이촌동 303-15,37.51759,126.959221
ST-835,4.7738191041135005,서울특별시 강서구 강서로 304강서구 내발산동 724-42,37.552914,126.836571
ST-3135,4.772979843389529,서울특별시 용산구 원효로53길 4,37.535778,126.962212
ST-1973,4.75542366320555,서울특별시 영등포구 당산동4가 10-21,37.52869,126.903862
ST-941,4.74950068167478,서울특별시 종로구 평창문화로 119일성아파트,37.608719,126.972862
ST-183,4.738983626998064,서울특별시 종로구 교북동 10-1독립문역 사거리,37.572029,126.960785
ST-2194,4.723828925493473,서울특별시 서대문구 홍은동 464-7,37.592934,126.941292
ST-70,4.721817788067958,서울특별시 영등포구 국제금융로 86롯데캐슬 앞,37.520088,126.932365
ST-3249,4.715075427256801,서울특별시 용산구 이촌로71길 10 한가람아파트,37.520271,126.973351
ST-2173,4.703580547665529,서울특별시 용산구 한강대로 205 용산파크자이,37.536079,126.973419
ST-117,4.680755869067663,서울특별시 종로구 사직로 지하130경복궁역 7번출구 앞,37.575794,126.971451
ST-78,4.660582615504581,서울특별시 마포구 가양대로 189부엉이근린공원 앞,37.58559,126.884727
ST-3080,4.642665023871003,서울특별시 용산구 원효로2가 1-73,37.537861,126.965652
ST-2786,4.635322359906237,서울특별시 중구 중구 한강대로 405,37.555408,126.969421
ST-519,4.609580413029744,서울특별시 강서구 양천로61길 101강서구 가양동 1484-5,37.559479,126.86438
ST-67,4.607419479798571,서울특별시 영등포구 여의대방로 439여의도초등학교 앞,37.522675,126.93779
ST-279,4.601965965680902,서울특별시 영등포구 양평동4가 20-4양평1 보행육교 앞,37.535873,126.892181
ST-1494,4.584447091371551,서울특별시 마포구 성산로 128마포중앙도서관,37.563339,126.908203
ST-1342,4.560312126207816,서울특별시 용산구 한강대로77길 18남영역 건너편,37.541981,126.971542
ST-928,4.551920905933183,서울특별시 서초구 신반포로16길 30서초구 반포동 15-2,37.501713,126.995476
ST-2239,4.520456152864,서울특별시 용산구 이촌동 303-8,37.517296,126.959145
ST-872,4.495586659842261,서울특별시 구로구 경인로3길 지하 64구로구 온수동 119-4,37.49279,126.824524
ST-3073,4.489546302062559,서울특별시 영등포구 여의대로 66 하이투자증권,37.524643,126.923424
ST-1510,4.479353157532566,서울특별시 강서구 공항대로 411강서구청사거리(SH타워),37.556736,126.853073
ST-1357,4.478034793902167,서울특별시 관악구 신사로 132보라매공원 보도육교,37.488991,126.916382
ST-72,4.4555191920911374,서울특별시 영등포구 의사당대로 지하166샛강역 1번출구 앞,37.517765,126.928413
ST-2019,4.451852714907391,서울특별시 종로구 평창문화로 65 평창동 주민센터,37.606274,126.968323
ST-2472,4.447804207985011,서울특별시 종로구 삼봉로95(견지동110),37.572182,126.982834
ST-66,4.443381101575354,서울특별시 영등포구 국제금융로8길 2NH농협은행 앞,37.522079,126.930367
ST-2056,4.436063329451323,서울특별시 강서구 내발산동 741-2,37.553631,126.828613
ST-1752,4.423166677063155,서울특별시 종로구 평창문화로 6-4신영동삼거리(북악터널방향),37.603512,126.962067
ST-3056,4.409544325712341,서울특별시 용산구 이태원로 186 국민은행,37.534401,126.994667
ST-306,4.389837519897632,서울특별시 영등포구 영등포동1가35신길역3번출구,37.517693,126.914299
ST-1915,4.380222794960852,서울특별시 서초구 방배로 264-2 구두수선대,37.497795,126.987068
ST-2822,4.375544982349573,서울특별시 영등포구 국회대로50길 20 포레나 영등포,37.523415,126.905403
ST-1908,4.369187827835685,서울특별시 서초구 잠원로 69 킴스클럽,37.510193,127.007256
ST-165,4.338515889568606,서울특별시 종로구 사직로9길 5사직동주민센터,37.576332,126.96859
ST-1653,4.269855002096529,서울특별시 영등포구 영중로 107영등포전화국사거리 (서강어린이공원),37.525768,126.905739
ST-116,4.2311265977517545,서울특별시 중구 정동길 2-1정동사거리,37.56805,126.969231
ST-687,4.230522397824802,서울특별시 동작구 상도로 지하 188동작구 노량진동 311-4,37.505852,126.939362
ST-294,4.225595991182322,서울특별시 영등포구 당산동4가 35-24삼성생명 당산사옥 앞,37.528263,126.896629
ST-2449,4.220315858355551,서울특별시 용산구 원효로4가 114-38,37.532379,126.95253
ST-1062,4.214212532950366,서울특별시 강서구 공항대로 33 송정역(5호선),37.561531,126.810699
ST-2978,4.209086207333074,서울특별시 마포구 서울시 마포구 염리동 30-29,37.551529,126.946693
ST-322,4.173679391122425,서울특별시 용산구 원효로4가 109-10목월공원 앞,37.532433,126.954742
ST-1069,4.169611703529444,서울특별시 강서구 화곡로 302강서구청,37.550659,126.84977
ST-1645,4.167323655474843,서울특별시 강서구 방화대로7길 6마곡13단지,37.55645,126.815979
ST-1791,4.1613147849290835,서울특별시 중구 세종대로 2 서울역 1호선,37.55677,126.973198
ST-508,4.1408737388570485,서울특별시 강서구 양천로17길 6강서구 방화동 769-23,37.573643,126.811806
ST-46,4.125893574575863,서울특별시 영등포구 국회대로76길 1013-1,37.531239,126.921333
ST-2807,4.122076515161877,서울특별시 영등포구 당산로36길 12 당산2차삼성아파트,37.527622,126.898636
ST-1152,4.100998039626318,서울특별시 동작구 사당동 1131남성역3번출구 뒤,37.484631,126.97155
ST-700,4.042636098670553,서울특별시 동작구 만양로 84노량진동 118-14,37.510548,126.944847
ST-2025,3.9924263940835245,서울특별시 강서구 가양동 1459-11,37.564587,126.856918
ST-121,3.982077406812055,서울특별시 종로구 세종로 84-1,37.572559,126.978333
ST-1976,3.9356272417643123,서울특별시 영등포구 문래로4길 6 현대아파트,37.520218,126.882164
ST-2176,3.90151983792923,서울특별시 용산구 삼개로 60 천년명가 청암자이,37.534527,126.947182
ST-2451,3.898806638888609,서울특별시 용산구 이태원로 6,37.535286,126.974083
ST-1731,3.8524425928630315,서울특별시 양천구 목동동로 270오목교역 3번출구,37.524776,126.875481
ST-1325,3.8496227020064215,서울특별시 용산구 한강대로 289숙대입구역 8번,37.544079,126.972
ST-780,3.8438771864064805,서울특별시 서초구 잠원로4길 지하 46잠원역 ,37.512989,127.011177
ST-416,3.8233384179695875,서울특별시 영등포구 문래로 56영문초등학교 사거리,37.519928,126.889183
ST-514,3.814946316642199,서울특별시 강서구 마곡동 221-4,37.573124,126.822388
ST-2050,3.7994864803866357,서울특별시 강서구 마곡중앙1로 71 마곡 13단지 힐스테이트 마스터,37.558632,126.819916
ST-2200,3.791804171757285,서울특별시 서대문구 북아현동 1016-2,37.561455,126.95575
ST-336,3.784042593634188,서울특별시 종로구 서린동 26-1종각역 5번출구,37.569836,126.982658
ST-975,3.783727732529346,서울특별시 강서구 마곡서1로 111-12신방화역환승주차장,37.567284,126.818275
ST-417,3.782145698693039,서울특별시 영등포구 선유로 34근로자회관 사거리,37.517151,126.888626
ST-660,3.778155293728944,서울특별시 금천구 독산동 727-1,37.456726,126.893066
ST-1660,3.769709656966349,서울특별시 광진구 능동로 92건대입구역 사거리(롯데백화점),37.539139,127.070618
ST-2026,3.7403174089791635,서울특별시 강서구 강서로 515 라이품,37.57132,126.841667
ST-877,3.738672015603208,서울특별시 동작구 노량진로 191동작구 노량진동 152-7,37.513359,126.948059
ST-978,3.727680344752427,서울특별시 종로구 효자로13길 45종로구 궁정동 98-2,37.583603,126.972549
ST-2446,3.7186692408386093,서울특별시 용산구 녹사평대로 140,37.5303,126.991379
ST-1599,3.7006423999206497,서울특별시 성동구 금호로 30독서당 인문아카데미센터,37.546089,127.02507
ST-2334,3.685974495953533,서울특별시 성동구 성수동1가 719,37.541958,127.04277
ST-2486,3.678163198156782,서울특별시 강서구 방화동621-6,37.561794,126.80793
ST-2902,3.6749037178356425,서울특별시 영등포구 영등포구 도신로(신길우성4차 401동 앞),37.512833,126.917633
ST-2920,3.6649328299137585,서울특별시 영등포구 영등포구 양평동5가 51-1,37.539726,126.890366
ST-516,3.651366054326703,서울특별시 강서구 양천로 지하 560강서구 등촌동 666-40,37.557461,126.861458
ST-1275,3.645427918713301,서울특별시 구로구 공원로 15구로도서관,37.498516,126.891991
ST-293,3.6343612393198437,서울특별시 영등포구 영등포동8가 82-4영등포삼환아파트 앞,37.530079,126.905708
ST-724,3.63404684563559,서울특별시 관악구 신림로 270관악구 신림동 808-263,37.478428,126.931862
ST-439,3.6249411380851915,서울특별시 용산구 한강대로 349청파동입구 교차로,37.549026,126.971947
ST-422,3.6139487596863913,서울특별시 영등포구 양평로 58그랜드컨벤션센터 앞,37.534718,126.900002
ST-2482,3.6101967824432513,서울특별시 강서구 방화대로319,37.569248,126.816505
ST-3129,3.6090995642796404,서울특별시 강서구 방화대로50길 8 연세강서빌딩,37.576252,126.817345
ST-63,3.608619674293652,서울특별시 영등포구 의사당대로 110미성아파트 A동 앞,37.519363,126.926048
ST-2812,3.6078043134677045,서울특별시 영등포구 영등포구 양평동3가 22-1,37.525726,126.886002
ST-71,3.6021690490909473,서울특별시 영등포구 의사당대로 166 샛강역,37.517586,126.929619
ST-2694,3.6006065603008235,서울특별시 영등포구 영등포구 의사당대로 1,37.532719,126.917992
ST-424,3.600352252604303,서울특별시 영등포구 여의나루로 76증권거래소후문교차로,37.522343,126.927101
ST-760,3.5963166174419023,서울특별시 동작구 사당로 지하 310서초구 방배동 2298,37.485828,126.982628
ST-335,3.5943350334795254,서울특별시 용산구 이촌동301-5LIG강촌아파트 103동앞,37.518509,126.978798
ST-62,3.5604989954296133,서울특별시 영등포구 의사당대로 127롯데캐슬엠파이어 옆,37.520695,126.925835
ST-518,3.544150118540524,서울특별시 강서구 허준로 139 강변아파트,37.564785,126.854645
ST-936,3.5402218403463386,서울특별시 구로구 시흥대로 551디지털입구 교차로,37.482883,126.901039
ST-791,3.5349684305929823,서울특별시 강남구 압구정로 지하 172압구정역 2번 출구 옆,37.527123,127.028717
ST-827,3.515909972768213,서울특별시 성북구 안암로 69안암로터리 버스정류장,37.582592,127.028976
ST-41,3.5158278398595693,서울특별시 서대문구 연세로 50-189-4,37.560009,126.940735
ST-1964,3.5134220329542956,서울특별시 구로구 경인로 673-1 가로판매대,37.510063,126.889565
ST-2353,3.5045634941524186,서울 동작구 대방동 341-12,37.512135,126.925438
ST-2035,3.4934982059171413,서울특별시 강서구 마곡중앙8로 32 스페이스K 서울,37.561211,126.830345
ST-1661,3.477072654368143,서울특별시 광진구 아차산로 236,37.540127,127.069496
ST-824,3.4747503008974268,서울특별시 강서구 양천로24길 13 마곡센트레빌,37.572563,126.816422
ST-1268,3.460702122951279,서울특별시 관악구 보라매로 3당곡사거리,37.48975,126.927467
ST-1531,3.4511769480694183,서울특별시 구로구 구일로10길 27SK허브수 A동,37.495399,126.87101
ST-1509,3.4480847296489934,서울특별시 강서구 허준로 202가양3동 주민센터,37.561249,126.86058
ST-3084,3.4451747226547265,서울특별시 강서구 가양동 14-26,37.562508,126.852753
ST-2481,3.443196840169836,서울특별시 강서구 화곡로228,37.545368,126.844704
ST-729,3.404904886010936,서울특별시 동작구 동작대로 지하 3동작구 사당동 1112,37.481491,126.981583
ST-1675,3.395098335901021,서울특별시 마포구 신촌로 지하 180이대역 5번출구,37.556591,126.94619
ST-2047,3.390918911082668,서울특별시 강서구 마곡동 769-4,37.559128,126.834953
ST-2341,3.3842494434117856,서울특별시 성동구 성수동1가 685-632,37.54591,127.044601
ST-414,3.3825212452523394,서울특별시 영등포구 여의서로 60-2 가로판매대22,37.533657,126.912163
ST-2946,3.3803001327879962,서울특별시 강서구 염창동 284-46,37.550858,126.872337
ST-119,3.3746277316329145,서울특별시 종로구 세종대로 지하189세종로공원,37.57177,126.974663
ST-2023,3.37310438322316,서울특별시 강서구 가양동 1458-13,37.57037,126.844414
ST-1254,3.3722323764299147,서울특별시 강서구 방화대로34길 65방화동 강서기동대앞,37.570499,126.820084
ST-927,3.363301508524152,서울특별시 서초구 고무래로 34서초구 반포동 131-1,37.502636,127.012314
ST-3104,3.3594104426534637,서울특별시 양천구 오목로 245 목동역,37.526531,126.864456
ST-3204,3.3497266893418005,서울특별시 영등포구 경인로 900 여의도더리브스타일,37.517918,126.912598
ST-2017,3.344363192532626,서울특별시 양천구 오목로 299 목동트라팰리스,37.525372,126.870926
ST-2944,3.34149630238395,서울특별시 강서구 양천로55길 55 강서한강자이,37.567245,126.850388
ST-2473,3.337458458810084,서울특별시 종로구 자하문로 56 자교교회,37.581146,126.971237
ST-280,3.316691802405846,서울특별시 영등포구 양평동1가 115-2남부고용노동지청 남측,37.524506,126.891823
ST-1067,3.307872498519726,서울특별시 강서구 가양동 1458-15기쁜우리복지관,37.56926,126.848419
ST-512,3.2995281527043656,서울특별시 강서구 마곡중앙5로 58강서구 마곡동 743-3,37.566982,126.8218
ST-834,3.298658219441546,서울특별시 강서구 공항대로 329강서구 등촌동 675-7,37.558197,126.844261
ST-1995,3.2809570221412065,서울특별시 양천구 목동서로 159-3 가로판매대2,37.527855,126.874672
ST-330,3.2602329759165176,서울특별시 용산구 독서당로 18한남 유수지 복개주차장,37.530167,127.007439
ST-632,3.2565322773505834,서울특별시 금천구 독산동독산동 1086 (금천교 사거리 독산근린공원 입구),37.46455,126.883728
ST-2484,3.2542857289607277,서울특별시 강서구 방화동651-1,37.567535,126.805183
ST-1440,3.2536091505279967,서울특별시 중구 청계천로 400 롯데캐슬베네치아,37.571014,127.019745
ST-2527,3.2118746595394687,서울특별시 중구 퇴계로 135-14 구두수선대124,37.561226,126.987495
ST-2420,3.2082496880187596,서울특별시 성동구 사근동 241-1,37.561192,127.049683
ST-2199,3.203233359832718,서울특별시 서대문구 현저동 941,37.572205,126.959747
ST-1517,3.197523687257269,서울특별시 강서구 마곡중앙로 36마곡엠밸리 15단지(1502동) 건너편,37.557468,126.82972
ST-1721,3.176035455617666,서울특별시 용산구 두텁바위로 74 용산중학교,37.546501,126.980949
ST-3212,3.1751841759450894,서울특별시 영등포구 당산로 83,37.521954,126.895508
ST-431,3.170236367846829,서울특별시 양천구 등촌로 2홍익병원앞 교차로,37.530369,126.864258
ST-1938,3.169673307102002,서울특별시 금천구 벚꽃로 298 대륭포스트타워6차,37.480888,126.883804
ST-1710,3.1574871460672957,서울특별시 강서구 내발산동 741-8,37.55545,126.826897
ST-1523,3.143956666337107,서울특별시 구로구 중앙로 100고척LIGA아파트 앞,37.50605,126.860786
ST-2871,3.1316331635160872,서울특별시 강서구 강서구 마곡동 798,37.559746,126.824387
ST-3171,3.128355868278685,서울특별시 영등포구 신길동 65-6,37.5135,126.920868
ST-2820,3.1082699017198854,서울특별시 영등포구 영등포구 선유로9길 30,37.518002,126.884598
ST-59,3.091137108222862,서울특별시 영등포구 여의대로 3827,37.521908,126.918953
ST-1374,3.076605921107056,서울특별시 종로구 송월길 99경희궁 자이 3단지,37.568855,126.964561
ST-175,3.0699636024588273,서울특별시 종로구 숭인동 81-39동묘앞역 1번출구 뒤,37.573242,127.015907
ST-1435,3.060656800278327,서울특별시 중구 을지로 지하 129을지로3가역 3번출구,37.566559,126.992439
ST-1879,3.0577725363941277,서울특별시 강남구 도곡동 310-2,37.490959,127.054985
ST-1999,3.0530716118150307,서울특별시 양천구 공항대로 630 어바니엘,37.546707,126.874573
ST-2243,3.0421352122166057,서울특별시 은평구 백련산로 38 백련산 힐스테이트 2차,37.590363,126.923012
ST-1199,3.028499079243837,서울특별시 성동구 성수동1가 678-1서울숲 관리사무소,37.542816,127.042084
ST-1714,3.017695479954121,서울특별시 강서구 강서로 247엘펠리체 호텔 건너편,37.560242,126.835808
ST-1802,3.0021975360521442,서울특별시 종로구 사직로8길 20 경희궁 파크팰리스,37.574551,126.970551
ST-68,2.998422912695908,서울특별시 영등포구 63로 45 여의도시범아파트,37.51902,126.93689
ST-185,2.9927882786294293,서울특별시 중구 서소문로 지하127시청역(2호선) 9번출구 뒤,37.563229,126.974838
ST-2625,2.9913918911504656,서울특별시 중구 퇴계로 235 남산 센트럴 자이,37.562527,126.998314
ST-1373,2.9907225973645204,서울특별시 종로구 경교장길 35경희궁자이 3단지,37.56749,126.965919
ST-145,2.9888230087915217,서울특별시 종로구 청계천로 93 파고다타워,37.568485,126.987885
ST-2993,2.986634012806027,서울특별시 강서구 강서구 마곡동 798-17,37.558235,126.82576
ST-2464,2.986303633153379,서울특별시 구로구 서울 구로구 구로동 1-2,37.506241,126.891144
ST-758,2.975332929532185,서울특별시 서초구 방배동 388-5,37.489769,126.986763
ST-2054,2.969448735468963,서울특별시 강서구 화곡동 662-6,37.53159,126.846642
ST-704,2.9504596984280953,서울특별시 관악구 난곡로 295관악구 신림동 1475-64,37.480251,126.914604
ST-1169,2.9482798089001085,서울특별시 서초구 잠원동 86,37.514839,127.015602
ST-2611,2.946520085047024,서울특별시 강서구 초원로16길 3-9 안성빌라,37.567406,126.816216
ST-2489,2.9420866174798284,서울특별시 강서구 강서구 양천로47길 24,37.571289,126.837776
ST-2664,2.9392361018644757,서울특별시 서초구 반포동15-2,37.499798,126.996468
ST-525,2.9309022899387838,서울특별시 강서구 화곡로 지하 168강서구 화곡동 1089-43,37.542099,126.840218
ST-246,2.922361531238948,서울특별시 성동구 금호동2가 1205-1금호사거리,37.548634,127.025726
ST-2439,2.91769169845911,서울특별시 용산구 용산동6가 11-438,37.520878,126.979713
ST-150,2.9168223238955195,서울특별시 종로구 종로 지하129종로3가역 2번출구 뒤,37.570599,126.991791
ST-2041,2.9160661021836174,서울특별시 강서구 마곡중앙8로3길 79,37.568485,126.83857
ST-194,2.9119084063548124,서울특별시 중구 세종대로 지하2서울역9번출구,37.556,126.973358
ST-2965,2.910579119994617,서울특별시 강서구 마곡동 748-4,37.556763,126.818695
ST-2857,2.8972367360887437,서울특별시 강서구 방화대로 294 마곡더블유타워,37.566929,126.816841
ST-329,2.8679247137853063,서울특별시 용산구 서빙고동 235-5서빙고동 금호맨션 앞,37.520504,126.989738
ST-2036,2.8649607003858564,서울특별시 강서구 공항대로 195 힐스테이트에코동익,37.559658,126.829605
ST-3102,2.839119679677665,서울특별시 영등포구 영등포로 383,37.513824,126.920937
ST-2765,2.8336511969593836,서울특별시 양천구 목동동로 53 동문굿모닝탑Ⅰ,37.514812,126.861176
ST-1668,2.8307167105342987,서울특별시 중구 을지로 지하 42을지로입구역 1번출구,37.566345,126.982292
ST-1323,2.822941463395959,서울특별시 영등포구 도영로 18쌍용플레티넘오피스텔,37.507931,126.895233
ST-1983,2.8191527928077966,서울특별시 영등포구 신길동 2798,37.500172,126.911308
ST-882,2.808245922727205,서울특별시 관악구 봉천동 962,37.486202,126.935814
ST-352,2.8032279746182964,서울특별시 서대문구 홍제천로 48연희교차로 인근,37.56612,126.925896
ST-506,2.794810486090816,서울특별시 성동구 아차산로 100성수동2가 315-105,37.544159,127.056656
ST-1909,2.7761653274670968,서울특별시 서초구 신반포로 219 반포쇼핑타운,37.507351,127.008018
ST-1916,2.7654404258509184,서울특별시 서초구 방배로 239 현대멤피스아파트,37.494205,126.989357
ST-918,2.7653720468817347,서울특별시 구로구 도림천로 351구로구 구로동 72-9,37.494404,126.894447
ST-1650,2.7633084099231513,서울특별시 영등포구 문래로 180센트럴 푸르지오 시티 앞,37.518211,126.902229
ST-2172,2.7548123463118332,서울특별시 용산구 이태원로 29 전쟁기념관,37.534889,126.975624
ST-2364,2.7247707502999017,서울특별시 동작구 사당로 300 이수자이,37.484703,126.980591
ST-1402,2.6904821302809463,서울특별시 강서구 마곡중앙1로 72 마곡엠밸리10단지,37.560291,126.818756
ST-1017,2.6844998164344105,서울특별시  양천구 목동 902-5목동2단지 상가,37.536503,126.877747
ST-663,2.679251432742739,서울특별시 구로구 경인로67길 160구로구 신도림동 323-16,37.51424,126.882874
ST-1688,2.6689726972827583,서울특별시 강서구 공항대로 227마곡센트럴타워 1차,37.559471,126.832077
ST-2211,2.6670618525612255,서울특별시 서대문구 남가좌동 3-91,37.583344,126.922745
ST-241,2.6635846726169508,서울특별시 성동구 행당동 20-2한양대병원사거리,37.558052,127.040352
ST-1739,2.6633173682590225,서울특별시 서초구 동작대로 80이수역 6번출구 앞,37.483662,126.982323
ST-2411,2.6536677012866843,서울특별시 강서구 마곡서1로 60,37.562092,126.820969
ST-1305,2.640565118176406,서울특별시 서초구 서초중앙로 130교대역 5번출구 뒤,37.493618,127.014183
ST-2810,2.632591919941492,서울특별시 영등포구 영등포구 신길동 42-7,37.517563,126.916985
ST-436,2.626697385953042,서울특별시 용산구 한강대로 161삼각지역 4번출구 앞,37.533451,126.971733
ST-535,2.6233915677410344,서울특별시 강서구 강서로5길 50강서구 화곡동 941-2,37.52906,126.84848
ST-1548,2.6189304888096077,서울특별시 관악구 남부순환로 1761양녕로 입구,37.482189,126.946159
ST-1972,2.6185589805428346,서울특별시 영등포구 당산동4가 80-2,37.530735,126.89917
ST-1383,2.6154985287973065,서울특별시 성북구 보국문로 91북한산보국문역,37.612072,127.008133
ST-1519,2.6106149258939175,서울특별시 강서구 공항대로 376KBS 스포츠월드,37.556877,126.848808
ST-1822,2.609319216195296,서울특별시 종로구 사직동 9-2,37.575291,126.968956
ST-2355,2.608089799214004,서울특별시 동작구 동작대로 89 골든시네마타워,37.484608,126.981796
ST-2823,2.6069439701797505,서울특별시 영등포구 영등포구 대림동 917-49,37.495823,126.908356
ST-695,2.6033074018524274,서울특별시 동작구 현충로 지하 220동작구 동작동 326,37.503189,126.97715
ST-3117,2.600642532108592,서울특별시 동작구 여의대방로16길 1 태성대아파트,37.495823,126.917816
ST-180,2.600182799595031,서울특별시 종로구 무악동 89-2,37.574158,126.958519
ST-761,2.5997709338335686,서울특별시 서초구 서초대로 4051377,37.496914,127.024963
ST-1320,2.590170089809953,서울특별시 영등포구 선유서로 76 신동아아파트,37.522697,126.885681
ST-1807,2.585089615141766,서울특별시 종로구 돈화문로10길 2,37.572468,126.99189
ST-2187,2.583489186490614,서울특별시 용산구 용산동5가 17,37.52177,126.977005
ST-2478,2.5805830756242467,서울특별시 강서구 양천로 743 나이아가라관광호텔,37.54903,126.878365
ST-369,2.575398660490975,서울특별시 동대문구 청계천로 417청계8가사거리 부근,37.571102,127.02356
ST-1253,2.5749483403160793,서울특별시 강서구 마곡서1로 68공항초등학교건너편,37.562679,126.820473
ST-2477,2.568539656939773,서울특별시 강서구 마곡동 726-16,37.564976,126.817406
ST-2943,2.55532862227763,서울특별시 강서구 가양동,37.569027,126.839882
ST-1804,2.551269268356341,서울특별시 종로구 안국동 175-92,37.575806,126.983391
ST-1442,2.5449624641894784,서울특별시 용산구 서빙고로 67용산 파크타워 앞,37.523651,126.970268
ST-1920,2.544695981690754,서울특별시 서초구 반포대로 275 래미안퍼스티지아파트,37.503624,126.997322
ST-2202,2.536092118234248,서울특별시 서대문구 성산로 520 이화여자대학교 부속 중학교,37.564068,126.945328
ST-1063,2.5296231366665607,서울특별시 강서구 공항대로 163 마곡역(5호선),37.560207,126.824142
ST-1736,2.5243764119186585,서울특별시 양천구 안양천로 1156 신목동역자전거주차장,37.543949,126.883461
ST-1347,2.5216061018057396,서울특별시 성북구 보문로30길 29보문2교,37.588699,127.018913
ST-1819,2.519680171828561,서울특별시 종로구 명륜2가 133,37.584797,126.997131
ST-2011,2.5142983625489204,서울특별시 양천구 신정동 321-8,37.517475,126.866325
ST-2888,2.494801489220681,서울특별시 강서구 내발산동 657-2,37.555454,126.837517
ST-2163,2.488204561775956,서울특별시 마포구 월드컵로36길 15 서부노인전문요양센터,37.566246,126.902184
ST-1270,2.487611852016663,서울특별시 관악구 신림로 369신림동걷고싶은문화의거리입구,37.487301,126.928703
ST-1219,2.483718355796058,서울특별시 구로구 구일로 90-51구일고등학교 정문,37.493401,126.874329
ST-949,2.4774524334850065,서울특별시 서초구 동작대로 204 청남빌딩,37.494743,126.983063
ST-1158,2.475589415542414,서울특별시 서초동 1748-14서초역 3번출구,37.49054,127.008163
ST-360,2.472629114925265,서울특별시 성동구 왕십리광장로 10-1왕십리역 4번 출구 건너편,37.561096,127.036797
ST-685,2.4704624267910207,서울특별시 동작구 노량진로 74동작구 대방동 47-3,37.512939,126.934242
ST-2447,2.4644713039006922,서울특별시 용산구 한강로3가 6,37.532482,126.964119
ST-388,2.4629939869492703,서울특별시 광진구 구천면로 2광진청소년수련관,37.546547,127.106133
ST-158,2.4618791854750595,서울특별시 종로구 대학로 104대학로 마로니에공원,37.579784,127.002533
ST-398,2.4582785743241815,서울특별시 동대문구 천호대로 269답십리역 1번출구,37.568184,127.051277
ST-1968,2.448760523656983,서울특별시 영등포구 영등포동8가 29-1,37.526302,126.90538
ST-109,2.4484752081938588,서울특별시 성동구 아차산로 18뚝섬역 1번 출구 옆,37.548561,127.045006
ST-2309,2.445491561886805,서울특별시 광진구 아차산로 417,37.538097,127.08902
ST-2873,2.4375087848452197,서울특별시 관악구 남부순환로1483,37.482048,126.915245
ST-997,2.436186503633941,서울특별시 양천구 목동중앙로 49목동3단지 시내버스정류장,37.53439,126.869598
ST-666,2.433858267781176,서울특별시 구로구 구일로 110구로구 구로동 642-107,37.495285,126.872162
ST-3213,2.4316709572588135,서울특별시 마포구 신촌로 212 아현교회당,37.556778,126.949341
ST-2803,2.4272518940244043,서울특별시 동작구 대방동 106-3,37.512627,126.927414
ST-2442,2.4112186442498995,서울특별시 용산구 한남대로 91,37.535919,127.005417
ST-281,2.3952745505200266,서울특별시 영등포구 양평동3가 14-1양평우림 이비즈센타 앞,37.52565,126.887817
ST-1151,2.382229075944129,서울특별시 동작구 신대방동 395보라매공원 정문,37.497078,126.917793
ST-2490,2.3802308291977337,서울특별시 강서구 강서구 양천로47길 90,37.5741,126.837112
ST-2866,2.3771132889946642,서울특별시 용산구 원효로4가 113-54,37.532005,126.955559
ST-2362,2.373058427057442,서울특별시 동작구 동작대로 43-2 구두수선대,37.479107,126.981506
ST-2225,2.3720083637697305,서울특별시 성북구 동소문동6가 140-5,37.592827,127.016289
ST-1797,2.366787901016162,서울 송파구 올림픽로 95,37.516212,127.084343
ST-2368,2.3653178547516247,서울특별시 동작구 사당동 산1-13,37.491501,126.982407
ST-669,2.3614333029954095,서울특별시 구로구 디지털로31길 120구로구 구로동 772,37.4888,126.890663
ST-291,2.3612052189125357,서울특별시 영등포구 신길동 215-28신길선원가와인아파트 앞,37.510933,126.910225
ST-259,2.358957560038998,서울특별시 광진구 구의동 96아차산역 3번출구,37.551224,127.089706
ST-2883,2.3565495495727684,서울특별시 강서구 방화동 849-2,37.571087,126.807541
ST-528,2.3370476122821806,서울특별시 강서구 공항대로 지하 529강서구 등촌동 505-3,37.551109,126.863709
ST-2058,2.3348677342400226,서울특별시 강서구 수명로2길 105 마곡수명산파크5단지아파트,37.550617,126.826881
ST-1259,2.333249241062256,서울특별시 관악구 남부순환로 1641관악우체국,37.484768,126.932877
ST-2357,2.324405352916297,서울특별시 동작구 만양로 6 e편한세상 상도 노빌리티,37.504562,126.946785
ST-286,2.3218043367139756,서울특별시 영등포구 신길동 4490보라매 두산위브 앞,37.496513,126.914803
ST-1496,2.2995456043101985,서울특별시 양천구 목동서로 38목동1단지아파트 상가 앞 (월촌중학교 버스정류소 옆),37.537869,126.881409
ST-2174,2.299510117307903,서울특별시 용산구 백범로90길 34 구두수선대,37.537399,126.968925
ST-315,2.2938881203550863,서울특별시 양천구 신정동 319-3서울출입국관리사무소 앞,37.51897,126.869965
ST-2831,2.291910327409189,서울특별시 강서구 공항대로 103,37.560684,126.819183
ST-2363,2.2877842671040067,서울특별시 동작구 사당로 272 삼보빌딩,37.48378,126.977921
ST-243,2.2772551622256705,서울특별시 성동구 용답동 224-3장안평역 8번 출구 앞,37.561371,127.06366
ST-238,2.2748853423457143,서울특별시 성동구 금호동3가 1575-3금호역 1번출구 앞,37.548641,127.016426
ST-991,2.268117752999764,서울특별시 마포구 성암로330DMC첨단산업센터,37.584503,126.885597
ST-254,2.2675257891449263,서울특별시 광진구 강변역로 87-2 가로판매대 - 28,37.535824,127.094162
ST-1372,2.252078772199476,서울특별시 종로구 율곡로 지하 308동대문역 8번출구,37.570141,127.009377
ST-262,2.2439018111697253,서울특별시 동대문구 장한로 25길 2장안동 사거리,37.572174,127.071388
ST-2465,2.2401657463939624,서울특별시 구로구 서울 구로구 구로동 50,37.501915,126.889244
ST-3258,2.2361478951131333,서울특별시 동대문구 왕산로 168 삼성화재청량리사옥,37.579021,127.042244
ST-788,2.2350757550146243,서울특별시 강남구 학동로 102 논현역,37.511372,127.021461
ST-1813,2.222826514127765,서울특별시 종로구 창신동 397-6,37.571533,127.015617
ST-3202,2.2037431887666448,서울특별시 서대문구 통일로 81 NH농협생명빌딩,37.562336,126.969093
ST-1768,2.1993867346785287,서울특별시 중구 퇴계로 33 서울로7017편의시설,37.556416,126.969193
ST-1607,2.1888011370202585,서울특별시 종로구 종로 79-1종로2가 버스정류장 (종각방향),37.570358,126.986382
ST-891,2.184169835022901,서울특별시 송파구 올림픽로 293-19송파구 신천동 28,37.513126,127.10096
ST-530,2.183042551851684,서울특별시 강서구 등촌로 185강서구 등촌동 608-4,37.546532,126.862549
ST-2817,2.1827959819180243,서울특별시 영등포구 영등포구 시흥대로 665,37.491283,126.90802
ST-2018,2.1803346679557607,서울특별시 강서구 공항대로 607 서울도시가스사옥,37.547485,126.872025
ST-2654,2.1765793505976263,서울특별시 동작구 보라매로 99,37.498455,126.927979
ST-619,2.1751218200036853,서울특별시 금천구 벚꽃로 115가산동 680-2 독산역 2번출구 뒤편 자전거 주차장,37.46653,126.888718
ST-400,2.172067541224568,서울특별시 동대문구 홍릉로 1청량리 기업은행 앞,37.580406,127.044823
ST-2811,2.162159655402593,서울특별시 영등포구 양평로17길 36 성원아파트,37.534191,126.893013
ST-2538,2.158165742557004,서울특별시 강서구 공항대로 260 이화의대부속서울병원,37.55846,126.836761
ST-2539,2.155431834684198,서울특별시 강서구 화곡로 215 강서문화센터,37.544579,126.843781
ST-1403,2.1535803815818393,서울특별시 금천구 벚꽃로 309가산디지털단지 7번출구,37.481232,126.881485
ST-50,2.153132864499892,서울특별시 영등포구 의사당대로 88,37.528164,126.917023
ST-1198,2.150897098601718,서울특별시 성동구 상왕십리동 350-1왕십리교회옆,37.566261,127.023697
ST-2693,2.1485869019299866,서울특별시 중구 무교로 6,37.566471,126.979256
ST-3210,2.1311086926594673,서울특별시 중구 신당동 44-40,37.561043,127.018211
ST-1160,2.1247597007225094,서울특별시 서초동 1389서초4동주민센터,37.502319,127.02227
ST-2858,2.1195349504691325,서울특별시 강서구 마곡서1로 48,37.560593,126.820847
ST-1677,2.117578443243357,서울특별시 영등포구 당산로31길 32쌍용예가(구청별관) 101동 인근,37.528099,126.893387
ST-2945,2.113986084558798,서울특별시 강서구 마곡동 800-23,37.557915,126.832977
ST-1542,2.1115542605403568,서울특별시 동작구 시흥대로 646미스터가이드양복전문점,37.489399,126.907112
ST-1824,2.1026107597106782,서울특별시 종로구 무악동 60-5,37.576668,126.955849
ST-1298,2.0982251339739633,서울특별시 동대문구 장한로 3-1 구두수선대,37.561966,127.064507
ST-2771,2.090908367913523,서울특별시 양천구 신월로 160,37.517796,126.841614
ST-2175,2.0865823715920486,서울특별시 용산구 백범로 260 효창파크 푸르지오,37.540478,126.958115
ST-69,2.082323355360154,서울특별시 영등포구 국제금융로 106 행진빌딩,37.519131,126.933373
ST-1924,2.0802694049493438,서울특별시 서초구 사평대로 108 반포골프백화점,37.49905,126.996254
ST-1771,2.074270727139681,서울특별시 중구 세종대로 39 대한서울상공회의소,37.560154,126.974106
ST-1733,2.0709361918007314,서울특별시 구로구 경인로65길 16-15신도림4차 e편한세상 아파트 1109동 앞,37.512329,126.886833
ST-772,2.070081178221209,서울특별시 서초구 양재동 237-2,37.470165,127.03862
ST-2492,2.0668388723167443,서울특별시 강서구 강서구 가양동 1456-6,37.573864,126.843475
ST-3170,2.0620122903169253,서울특별시 영등포구 신길동,37.513199,126.923523
ST-1695,2.055992758901769,서울특별시 강서구 개화동로8길 38개화광역환승센터,37.578449,126.798973
ST-2832,2.050198847311357,서울특별시 강서구 마곡중앙로 33 마곡엠밸리14단지,37.557373,126.823326
ST-1237,2.049189066991998,서울특별시 구로구 도림천로 351대림역 1번 출입구 밑,37.492565,126.894753
ST-288,2.047483755132886,서울특별시 영등포구 영등포동7가 58-2유스호스텔 앞,37.525852,126.903282
ST-965,2.0432397772366224,서울특별시 관악구 남부순환로 1830서울대입구역1번출구,37.480869,126.953316
ST-189,2.0377411034629764,서울특별시 중구 청구로 77 청구역 5.6호선,37.560474,127.014076
ST-2455,2.035541307925337,서울특별시 용산구 용문동 5-47,37.538513,126.963554
ST-1328,2.0349663112279246,서울특별시 용산구 이태원로 134이태원관광특구입구,37.534279,126.988564
ST-675,2.029808747788838,서울특별시 구로구 경인로 430구로구 고척동 63-5,37.49947,126.868401
ST-2555,2.0277680394664497,서울특별시 강서구 공항동 34-69,37.560879,126.813545
ST-2564,2.0198470058382045,서울특별시 영등포구 영등포구 도림로143길 27,37.512882,126.890266
ST-2441,2.016599605347447,서울특별시 용산구 서빙고로 69 파크타워아파트,37.5233,126.972061
ST-3013,2.0148927086106325,서울특별시 구로구 서울 구로구 구로동 496-128,37.500965,126.88237
ST-2626,2.010344487290496,서울특별시 중구 광희동 1가 202-5,37.564308,127.006477
ST-2039,2.0080392735990307,서울특별시 양천구 목동동로 350 목동신시가지아파트5단지,37.53302,126.877899
ST-712,2.0073771902276536,서울특별시 관악구 남현동 1060-12,37.476089,126.981331
ST-2005,1.9910809548089736,서울특별시 양천구 신정동 1145,37.518543,126.853882
ST-1226,1.9856359648009863,서울특별시 구로구 경인로 403원메디타운 앞,37.49789,126.864502
ST-3163,1.9844517618127087,서울특별시 양천구 목동 404-174,37.52367,126.875671
ST-2844,1.9810555691017429,서울특별시 양천구 목동동로 430 목동신시가지아파트6단지,37.533157,126.884087
ST-408,1.9762786070857188,서울특별시 동대문구 청계천로 563용두역 4번출구,37.573753,127.038536
ST-2013,1.9657055969200248,서울특별시 양천구 신정동 204-20,37.507904,126.862648
ST-300,1.9567790854073719,서울특별시 영등포구 신길동4884보라매역4번출구(순흥빌딩),37.499828,126.919945
ST-1191,1.9538940180656705,서울특별시 광진구 자양동 203-22영동대교 북단,37.537014,127.061096
ST-1667,1.9501608338153362,서울특별시 동작구 상도로 지하 378숭실대 입구역3번 출구 앞,37.496601,126.953682
ST-1554,1.94940472419867,서울특별시 서초구 사평대로 349반포1동 서초빌딩 앞,37.503811,127.021362
ST-2356,1.9429153967731816,서울특별시 동작구 흑석동 340-10,37.504704,126.960732
ST-181,1.9427032226239538,서울특별시 종로구 서린동 93-2SK 서린빌딩 앞,37.569248,126.980537
ST-2623,1.9415303959329868,서울특별시 종로구 돈화문로11가길 59,37.575283,126.990623
ST-1602,1.9375308185137787,서울특별시 광진구 아차산로78길 90광진정보도서관,37.550598,127.110512
ST-2508,1.9329666893996178,서울특별시 동대문구 청계천로 471,37.570148,127.029922
ST-1016,1.9233985681466612,서울특별시 양천구 오목로 31 부근강서초등학교,37.522282,126.839699
ST-2431,1.9220989498582537,서울특별시 중구 을지로6가 18-169,37.568314,127.00946
ST-799,1.9210400503296852,서울특별시 강남구 봉은사로 지하 601봉은사역 5번출구 옆,37.514248,127.061119
ST-1556,1.9182499437685896,서울특별시 서초구 강남대로 341삼원빌딩,37.493259,127.029533
ST-1511,1.9152809132605602,서울특별시 강서구 공항대로 389 부민병원,37.556614,126.851166
ST-333,1.9141147477444727,서울특별시 용산구 용산동1가 8-4용산전쟁기념관,37.53484,126.977661
ST-2414,1.9127940875722655,서울특별시 서초구 잠원동 83,37.518322,127.014809
ST-176,1.9122082276726313,서울특별시 종로구 숭인동 1499,37.572197,127.023041
ST-752,1.9068456251396384,서울특별시 서초구 방배로 110서초구 방배동 905-34,37.485611,126.994682
ST-2049,1.898541028517864,서울특별시 강서구 마곡동 728-352,37.555309,126.829857
ST-1015,1.8985104917583708,서울특별시 양천구 목동중앙로 212 앞신목동역 2번 출구,37.543842,126.882545
ST-1514,1.897731644638888,서울특별시 강서구 수명로1길 16마곡수명산파크4단지아파트 401동 앞,37.55011,126.823677
ST-2886,1.896445932593095,서울특별시 강서구 마곡동 799,37.559311,126.827438
ST-440,1.8950368557588806,서울특별시 용산구 한강로3가 66-4,37.522026,126.966187
ST-2669,1.8937261461423003,서울특별시 서초구 방배동 981-16,37.481167,126.997589
ST-324,1.893490462371648,서울특별시 용산구 한남동 726-494한강진역 2번 출구 앞,37.541153,127.002213
ST-299,1.8928237344315255,서울특별시 영등포구 신길동853서울지방병무청 버스정류장,37.504494,126.921951
ST-111,1.8856790751951518,서울특별시 성동구 아차산로 18뚝섬역 5번 출구 정류소 옆,37.546307,127.049805
ST-2958,1.885154971901318,서울특별시 영등포구 양평동2가 42-1,37.523643,126.881836
ST-1337,1.8734281926203318,서울특별시 관악구 남부순환로 1817서울대입구역 5번출구,37.481548,126.952003
ST-2191,1.869334072587211,서울특별시 용산구 서빙고동 241-37,37.519909,126.989235
ST-1006,1.8673017423060672,서울특별시 양천구 목동중앙로 70 서울영도초등학교,37.536377,126.871513
ST-272,1.8640675499001398,서울특별시 동대문구 신설동 92-34신설동역 10번출구 앞,37.575272,127.023468
ST-1818,1.8634511451375826,서울특별시 종로구 대학로 144 중원빌딩,37.583855,127.001854
ST-228,1.8623628131664014,서울특별시 서대문구 미근동 317-1임광빌딩 앞,37.564724,126.967278
ST-140,1.8614873809839547,서울특별시 중구 충무로1가 53-6,37.561344,126.980507
ST-2903,1.8605745460228216,서울특별시 중구 중구 청계천로 400,37.571621,127.022041
ST-1020,1.8571438172832995,서울특별시 은평구 신사동 41-3신사동 성당,37.597141,126.909599
ST-1654,1.856331765051393,서울특별시 서초구 논현로 151도곡이스타빌,37.482979,127.042259
ST-2514,1.855754866692659,서울특별시 중구 서소문로 103,37.562843,126.972618
ST-1994,1.8555426012514507,서울특별시 양천구 목동동로 350 목동신시가지아파트5단지,37.535667,126.881584
ST-2994,1.8448001742346918,서울특별시 강서구 공항대로 509 우림보보카운티뷰오피스텔,37.551884,126.863571
ST-2889,1.8373931508700803,서울특별시 강서구 마곡동 767-3,37.563541,126.824554
ST-694,1.8364612172410462,서울특별시 동작구 동작대로39길 22 이수힐스테이트,37.494663,126.982445
ST-944,1.8335665558939491,서울특별시 중구 퇴계로 212충무로역 1번출구,37.56139,126.995354
ST-233,1.8315544127294223,서울특별시 서대문구 충정로3가 56-1충정로역 7번출구 뒤,37.559967,126.962463
ST-547,1.831221083211448,서울특별시 송파구 백제고분로 95송파구 잠실동 19-10,37.511982,127.085052
ST-420,1.8288918841468358,서울특별시 영등포구 영등포로 177영등포청과시장 사거리,37.520294,126.901192
ST-328,1.8279928346165566,서울특별시 용산구 동자동 14-229서울역 12번 출구 앞,37.552277,126.972687
ST-2270,1.8260930055409748,서울특별시 동대문구 망우로 74,37.589687,127.061409
ST-980,1.8256454625001428,서울특별시 광진구 자양동 749,37.528454,127.078033
ST-1177,1.8251030340444767,서울특별시 강남구 도곡동 874-1도곡동 경남아파트 건너편,37.489342,127.041298
ST-2359,1.8245255253649226,서울특별시 동작구 사당동 164-72,37.487122,126.974358
ST-1018,1.8212541017727075,서울특별시 양천구 목동 903-6목동3단지 상가,37.53458,126.875649
ST-693,1.8183675593004647,서울특별시 동작구 흑석로 47동작구 흑석동 221-1,37.507042,126.959152
ST-155,1.8166488851431148,서울특별시 종로구 종로 185종로4가 사거리,37.571068,126.998192
ST-1646,1.8154194824920515,서울특별시 강서구 화곡로63가길 92등촌9단지,37.562901,126.849472
ST-2845,1.8092570091436553,서울특별시 중구 통일로 92 케이지타워,37.563396,126.968941
ST-759,1.8080962346142957,서울특별시 서초구 방배천로 126서초구 방배동 3151,37.487011,126.984962
ST-524,1.8079891888698236,서울특별시 강서구 화곡로 157강서구 화곡동 1089-52,37.540981,126.838547
ST-60,1.8014273351479357,서울특별시 영등포구 여의대로 38금융감독원 앞,37.523022,126.920837
ST-691,1.7998079961920426,서울특별시 동작구 상도로 지하 272동작구 상도1동 776,37.502178,126.948204
ST-2550,1.7983383857928537,서울특별시 강서구 양천로 559 가양이마트,37.557133,126.863144
ST-2761,1.7920609715961264,서울특별시 양천구 신월로 342-1 구두수선대19,37.52198,126.859283
ST-2948,1.789459102744789,서울특별시 관악구 남부순환로 2054,37.476398,126.976837
ST-1338,1.78861681808965,서울특별시 강서구 마곡중앙5로 58마곡중학교 후문,37.568447,126.821648
ST-2310,1.7865393808433343,서울특별시 광진구 화양동 24-33,37.54435,127.065407
ST-2667,1.785819197259069,서울특별시 서초구 반포동 118-3,37.503658,127.005943
ST-2437,1.7857819434828892,서울특별시 용산구 원효로3가 54-14,37.533222,126.957237
ST-107,1.7829797812207318,서울특별시 성동구 왕십리로11길 9서울숲남문 버스정류소 옆,37.541222,127.0438
ST-3081,1.78066660867866,서울특별시 용산구 한강로3가 64,37.524681,126.968193
ST-1497,1.7790723172149783,서울특별시 양천구 목동동로 298목동주차장,37.52668,126.876167
ST-1781,1.7776284048765831,서울특별시 중구 신당동 853,37.56765,127.01181
ST-1699,1.7772008114537046,서울특별시 영등포구 경인로 775 에이스하이테크시티,37.51413,126.899391
ST-2016,1.7717708818055533,서울특별시 양천구 오목로 300 현대하이페리온2,37.524906,126.869789
ST-910,1.7716943454573308,서울특별시 성북구 월곡로 지하 107성북구 하월곡동 37-4,37.602627,127.041634
ST-1899,1.7694707309137374,서울특별시 서초구 반포동 30-16,37.503643,127.016022
ST-705,1.7672642789199986,서울특별시 관악구 난곡로 210관악구 신림동 614-25,37.473728,126.918404
ST-143,1.7650567220027042,서울특별시 종로구 삼일대로 428낙원상가 옆,37.573357,126.987465
ST-1455,1.7580738985517057,서울특별시 성북구 보문로22길 28보문4교 인근,37.583752,127.02195
ST-169,1.7505319490483198,서울특별시 종로구 재동 19재동초교 앞 삼거리,37.579388,126.984947
ST-1436,1.7482886555332289,서울특별시 중구 만리재로 175서울역 센트럴 자이아파트,37.554108,126.965408
ST-1698,1.7479804056591561,서울특별시 영등포구 당산로41길 11당산동 SK V1 빌딩 인근,37.531509,126.897827
ST-1727,1.7460499879712361,서울특별시 강서구 마곡서1로 146마곡엠밸리2단지 202동 인근,37.56918,126.819443
ST-304,1.742727413793655,서울특별시 영등포구 도림동 159-70동아에코빌입구,37.509476,126.8993
ST-1829,1.7309606327926572,서울특별시 종로구 종로 104 YBM,37.570019,126.988808
ST-1812,1.72896899929884,서울특별시 종로구 종로 302 1호선 동대문역,37.571461,127.010788
ST-3182,1.7283471400062225,서울특별시 구로구 구로중앙로39길 11,37.505196,126.87619
ST-640,1.7223712184300877,서울특별시 금천구 가산디지털2로 123가산동 450-2,37.479084,126.879044
ST-2044,1.7187171991591932,서울특별시 강서구 마곡중앙10로 10 LG사이언스파크,37.563927,126.830643
ST-2787,1.7133828010932217,서울특별시 성동구 성동구 고산자로 212,37.55862,127.034355
ST-1926,1.7058320007119887,서울특별시 서초구 강남대로 477-2 가로분식점,37.505089,127.023911
ST-249,1.7022618742823907,서울특별시 성동구 행당동 10한양대후문역 부근 (양키캔들 앞),37.560356,127.041397
ST-2453,1.69647355060834,서울특별시 용산구 이태원로 177 6호선 이태원역,37.534531,126.996193
ST-3068,1.693430609493986,서울특별시 강서구 양천로 660 왈도강서캠퍼스,37.552216,126.870224
ST-1263,1.6910769199270759,서울특별시 광진구 천호대로 지하 550군자역 7번출구 뒤,37.556862,127.07914
ST-151,1.6908157124336565,서울특별시 종로구 종로 128-2 가로판매대,37.570194,126.991653
ST-690,1.6853549335158275,서울특별시 동작구 상도로 지하 188동작구 상도동 26-20,37.504498,126.938988
ST-875,1.6782401172544896,서울특별시 구로구 오리로 1102-10구로구 천왕동 257-82,37.482105,126.845726
ST-311,1.6727187636268819,서울특별시 양천구 오목로 344 청학빌딩,37.523628,126.875244
ST-3276,1.6720631298982094,서울특별시 강서구 화곡동 1089-50,37.540981,126.837433
ST-2000,1.668093599783897,서울특별시 양천구 공항대로 552 목동대우마이빌,37.549507,126.867218
ST-2819,1.6654771912067938,서울특별시 영등포구 영등포구 신길동 242-193,37.505089,126.913345
ST-1543,1.6650200111233884,서울특별시 동작구 여의대방로 122LG전자 베스트？ 대리점 앞,37.497669,126.919868
ST-2182,1.664935183594135,서울특별시 용산구 용산동4가 10-4,37.534409,126.986893
ST-3011,1.6563186386783413,서울특별시 영등포구 당산동4가 93-3,37.529152,126.894478
ST-1266,1.6537064854399053,서울특별시 광진구 능동로 373용마사거리,37.562527,127.082275
ST-1526,1.6495354102604085,서울특별시 구로구 경인로 219동방서적,37.496761,126.844963
ST-2059,1.6462615465565666,서울특별시 강서구 화곡로65길 62 강서구민올림픽체육센터,37.559906,126.850426
ST-2007,1.644942097954748,서울특별시 양천구 신정동 1278-2,37.517593,126.876556
ST-1991,1.6445059977146443,서울특별시 영등포구 신길동 3859,37.500137,126.913979
ST-2501,1.6424074478475947,서울특별시 동대문구 답십리로56길 124,37.567692,127.057892
ST-1615,1.6391140279046894,서울특별시 용산구 새창로 181선인상가,37.5327,126.964378
ST-1228,1.6382546549000545,서울특별시 구로구 경인로 382한마을아파트 정문상가,37.496498,126.863098
ST-1353,1.636675112512467,서울특별시 영등포구 도신로29길 28영등포 푸르지오 아파트,37.513229,126.904465
ST-829,1.6365241638828547,서울특별시 강서구 화곡로 지하 168화곡역 6번출구,37.541412,126.840225
ST-1985,1.6355928382923413,서울특별시 영등포구 도신로29길 28 영등포푸르지오,37.512024,126.901054
ST-517,1.6340196195948868,서울특별시 강서구 양천로 637강서구 염창동 284-18,37.554253,126.867561
ST-842,1.6338535817443474,서울특별시 성북구 동소문로 2성북구 동소문동2가 2-3,37.588448,127.006706
ST-1632,1.633827097525733,서울특별시 동대문구 왕산로 128동의보감타워,37.577999,127.037628
ST-1631,1.6316141341857804,서울특별시 동대문구 왕산로 87제기역1번출구,37.57835,127.033386
ST-309,1.629533692565594,서울특별시 양천구 목동 813목동사거리 부근,37.532803,126.86393
ST-269,1.6274874963864725,서울특별시 동대문구 제기동 122-388,37.587746,127.037384
ST-368,1.627123639711068,서울특별시 성동구 아차산로 113성수역 2번출구 앞,37.54459,127.057083
ST-2639,1.6259315619368613,서울특별시 금천구 시흥동 1000-48 알레르망 가게 앞,37.454151,126.900452
ST-849,1.6175079443216969,서울특별시 중랑구 면목로 325,37.58099,127.088242
ST-2818,1.6173620538510503,서울특별시 영등포구 영등포구 영등포동2가 174-1,37.518749,126.912209
ST-1521,1.6153174606609326,서울특별시 구로구 디지털로31길 12태평양물산IT빌딩 앞,37.484859,126.895187
ST-2398,1.6151111358225214,서울특별시 양천구 신정동 332-2,37.515156,126.87249
ST-2809,1.6124521711204658,서울특별시 영등포구 영등포구 가마산로 426,37.505455,126.906265
ST-199,1.6107016733211634,서울특별시 중구 청파로 456종로학원본원 앞,37.55978,126.968506
ST-3241,1.6104334545763914,서울특별시 영등포구 국회대로 596 영등포구민회관,37.526684,126.900192
ST-3143,1.6098747450748763,서울특별시 관악구 신림동 110-99,37.472202,126.933907
ST-943,1.606801287571714,서울특별시 중구 을지로 지하 178을지로4가역 1번출구,37.566731,126.996605
ST-3066,1.6060941302778626,서울특별시 강남구 강남대로 652,37.519169,127.018974
ST-673,1.6042973556525746,서울특별시 구로구 새말로 73구로구 구로동 50,37.504379,126.888298
ST-3090,1.6030424966715564,서울특별시 종로구 중학동 10-3,37.575714,126.980507
ST-3106,1.5984483010540818,서울특별시 동작구 흑석동 25-21,37.506828,126.966736
ST-441,1.594605692758954,서울특별시 용산구 효창원로 161효창동주민센터 앞,37.54232,126.96196
ST-132,1.5938656270506122,서울특별시 종로구 종로 47종각역 1번출구 앞,37.570396,126.981789
ST-303,1.5901420294967485,서울특별시 영등포구 신길동373-1도림4거리,37.506573,126.901131
ST-1605,1.5887792991828418,서울특별시 종로구 종로 239동대문 종합시장 버스정류장,37.571239,127.00441
ST-2884,1.5887490550287884,서울특별시 강서구 강서구 마곡동 799,37.559059,126.827049
ST-1900,1.5836584501425282,서울특별시 서초구 서초동 1417,37.498928,127.024727
ST-1606,1.580894585570617,서울특별시 종로구 종로 지하 200종로5가 지하쇼핑센터 14번출구,37.57114,127.000671
ST-884,1.577269561569414,서울특별시 관악구 관악로 217동진빌딩 앞,37.484257,126.954697
ST-3054,1.5762591688576164,서울특별시 용산구 소월로 109 남산도서관,37.552406,126.982018
ST-2003,1.5754136180143583,서울특별시 양천구 곰달래로7길 7 신월6차보람아파트,37.530128,126.834778
ST-312,1.5741372682872972,서울특별시 양천구 신정동 1095남부법원검찰청 교차로,37.523254,126.864906
ST-1171,1.5716640559156831,서울특별시 강남구 신사동 501-5신사동 가로수길 입구,37.517635,127.022453
ST-3267,1.5714164977447558,서울특별시 성동구 천호대로 282 남주빌딩,37.56678,127.05233
ST-123,1.5712523257402853,서울특별시 종로구 새문안로 55서울역사박물관 앞,37.57,126.9711
ST-2496,1.5684954947118877,서울특별시 동대문구  외대역동로6길 3,37.592865,127.065559
ST-1697,1.567893160170313,서울특별시 영등포구 가마산로 352대림3동사거리,37.499809,126.898003
ST-3100,1.565097180402026,서울특별시 강서구 등촌동 681-2,37.564182,126.840279
ST-152,1.561990816924494,서울특별시 중구 퇴계로 214 충무로역 3.4호선,37.561447,126.993111
ST-1163,1.5616199122063892,서울특별시 서초구 방배동 875-9,37.488022,126.994118
ST-137,1.5609745235006987,서울특별시 중구 을지로 66한국외환은행 본점 앞,37.565464,126.984138
ST-387,1.5600750008782607,서울특별시 광진구 아차산로 552광나루역 3번 출구,37.54483,127.104263
ST-2816,1.5592453021522115,서울특별시 영등포구 영등포구 대림로 256,37.503841,126.896156
ST-2892,1.5556828295168426,서울특별시 구로구 구로구 구로동 50-7,37.501263,126.891182
ST-3195,1.5550850304844042,서울특별시 구로구 경인로43길 49 고척아이파크구로구 고척동 102-2,37.498013,126.860985
ST-924,1.5547911388166074,서울특별시 동작구 동작대로 지하 3동작구 사당동 1129,37.476891,126.980576
ST-871,1.5546412470589224,서울특별시 구로구 서해안로 2340-10구로구 오류동 135-2,37.493671,126.843704
ST-2559,1.5531830854485746,서울특별시 구로구 신도림동 385-3,37.508625,126.883537
ST-662,1.549469011249642,서울특별시 구로구 신도림로 40구로구 신도림동 397-32,37.507332,126.87973
ST-828,1.5483866325538709,서울특별시 강서구 방화대로 241 공항중학교,37.562202,126.816246
ST-2764,1.5459218643956596,서울특별시 양천구 목동서로 271,37.523197,126.869301
ST-3203,1.541481920080379,서울특별시 성북구 길음동 1289-5,37.608849,127.028458
ST-1503,1.5383659430129075,서울특별시 양천구 신목로 126,37.524742,126.877663
ST-1977,1.5382015349761902,서울특별시 영등포구 문래동3가 55-13,37.517071,126.899086
ST-239,1.536503056834159,서울특별시 성동구 옥수동 산5-148옥수동성당 옆,37.543663,127.014061
ST-1188,1.5313165964947482,서울특별시 서대문구 신촌로 235-1북성초교,37.557396,126.952164
ST-1540,1.5294417195591552,서울특별시 영등포구 가마산로 315신동아아파트 앞,37.498241,126.893982
ST-2673,1.525228928159148,서울특별시 강남구 압구정로 130,37.524227,127.02285
ST-245,1.5249053904143772,서울특별시 성동구 금호동4가 1101우리은행 금호동 지점 앞,37.548149,127.021088
ST-224,1.5235275802354895,서울특별시 서대문구 북가좌동 70-119연가초등학교 옆,37.57946,126.91713
ST-2659,1.5226933284902577,서울특별시 서초구 반포동20-45,37.507233,127.009453
ST-2198,1.520230588605522,서울특별시 서대문구 합동 31-16,37.560463,126.965523
ST-2641,1.5054563766745936,서울특별시 금천구 독산동 1080-1 에이스하드웨어 정문 앞,37.468658,126.898262
ST-1694,1.5052650929137443,서울특별시 강서구 강서로 247우장산역 3번출구,37.547821,126.836128
ST-287,1.5046808680372576,서울특별시 영등포구 당산동4가 96-2제2구민체육센타 앞,37.526386,126.902756
ST-2034,1.5024470848468894,서울특별시 강서구 마곡동 806-5,37.555191,126.831467
ST-2419,1.4989510630410166,서울특별시 강서구 내발산동 751-6,37.55135,126.824936
ST-372,1.4983396726568579,서울특별시 성동구 마장로 292-1마장역 4번출구,37.565205,127.041847
ST-747,1.4955801649029854,서울특별시 서초구 신반포로 지하 188서초구 반포동 117-4,37.502232,127.002258
ST-1220,1.492333676538283,서울특별시 구로구 가마산로 272강서수도사업소민원센터,37.495781,126.890121
ST-2179,1.492102698837586,서울특별시 용산구 서빙고로 83 4호선 이촌역,37.522724,126.972771
ST-359,1.4910724933501052,서울특별시 성동구 고산자로 260성동광진 교육지원청 앞,37.564606,127.036522
ST-678,1.4886816589426513,서울특별시 구로구 남부순환로 775 개봉푸르지오,37.501705,126.847282
ST-1676,1.4877784070240039,서울특별시 강서구 발산로 24강서수산물도매시장,37.55302,126.818367
ST-1756,1.4866804411251298,서울특별시 종로구 팔판길 46삼청동 골목,37.58419,126.981697
ST-2048,1.4865823407186578,서울특별시 강서구 마곡동 728-46,37.555241,126.834717
ST-787,1.48564226015625,서울특별시 강남구 봉은사로 지하 102교보타워 버스정류장,37.505581,127.024277
ST-2760,1.4849714794429993,서울특별시 양천구 목동동로 180 신정동 아이파크,37.521095,126.873207
ST-2565,1.4774212405407323,서울특별시 종로구 운니동 98-7,37.57753,126.989128
ST-688,1.4770926448030328,서울특별시 동작구 상도로 지하 76동작구 대방동 406-10,37.499645,126.927094
ST-237,1.4760800293080476,서울특별시 성동구 행당동 188-9왕십리역 11번 출구 앞,37.561447,127.03492
ST-2569,1.4735684279145487,서울특별시 강서구 마곡동 769-4,37.558632,126.835594
ST-2960,1.47228104074448,서울특별시 양천구 목동동로 50 목동신시가지아파트12단지,37.514122,126.860405
ST-563,1.4721597601469696,서울특별시 성북구 동소문로 248동소문로248,37.603085,127.024788
ST-3118,1.4696749150551254,서울특별시 강서구 허준로 217 가양테크노타운,37.56036,126.862762
ST-821,1.4680302915348333,서울특별시 강남구 논현로 82삼호물산버스정류장(23370) 옆,37.477509,127.045174
ST-1264,1.4646717651402612,서울특별시 관악구 남부순환로 1728봉천역 2번출구,37.482189,126.942131
ST-950,1.4589348457586198,서울특별시 관악구 시흥대로 560조원동 미성아파트,37.483192,126.902031
ST-1522,1.4589213198506323,서울특별시 구로구 개봉로2길 133-15개봉아이파크아파트 앞,37.490341,126.860931
ST-2448,1.457807994563595,서울특별시 용산구 한강로3가 37-2,37.527611,126.955116
ST-655,1.4567958276048165,서울특별시 성북구 종암로3길 37-2성북구 종암동 12-33,37.593288,127.036667
ST-1541,1.448575482013018,서울특별시 영등포구 시흥대로 617신한은행,37.48753,126.904877
ST-2774,1.4485681457183253,서울특별시 양천구 목동동로 430 목동신시가지아파트6단지,37.536846,126.88475
ST-2412,1.448514070188889,서울특별시 강서구 내발산동 752-1,37.552559,126.823112
ST-2658,1.4462158536882788,서울특별시 서초구 반포동63-6,37.501507,127.003479
ST-2813,1.4445475305207354,서울특별시 영등포구 국제금융로 109-2 가로판매대59,37.518509,126.934486
ST-811,1.4436208144517932,서울특별시 강남구 역삼동 801-7,37.503212,127.042732
ST-2052,1.4402076834258948,서울특별시 강서구 마곡서로 101 동익드미라벨복합빌딩,37.562294,126.823952
ST-266,1.437950992662627,서울특별시 동대문구 겸재로 21휘경공고앞,37.584625,127.07029
ST-1774,1.435384635452893,서울특별시 중구 소공로 106 서울 웨스틴조선호텔,37.564159,126.979485
ST-1780,1.4281876180002873,서울특별시 중구 을지로7가 143,37.566299,127.008492
ST-493,1.42747113502972,서울특별시 강동구 천호대로 1005 현대백화점,37.538666,127.124245
ST-2268,1.42069109982834,서울특별시 동대문구 장한로 99-1 구두수선대,37.567871,127.068718
ST-2352,1.4177828911813375,서울특별시 동작구 흑석로 84 중앙대학교,37.506672,126.957779
ST-510,1.415737627716347,서울특별시 강서구 방화동 614-287,37.563873,126.810608
ST-1720,1.4143687038666133,서울특별시 송파구 양재대로 지하 1233올림픽공원역 3번출구,37.516258,127.130592
ST-418,1.4108992303825085,서울특별시 영등포구 영등포로 96교보생명보험 앞,37.521931,126.891617
ST-703,1.4102666511297608,서울특별시 관악구 관천로27길 2신사동 우방아파트,37.489178,126.919273
ST-1003,1.4081322532466916,서울특별시 양천구 화곡로 59신월동 이마트,37.539551,126.8283
ST-2992,1.4076412536801544,서울특별시 강서구 화곡동 1013-3,37.546619,126.836235
ST-798,1.407124937389276,서울특별시 강남구 삼성동 111-4,37.521015,127.06015
ST-665,1.4070533781598764,서울특별시 구로구 구일로2길 59구로구 구로동 685-524,37.489632,126.876259
ST-256,1.40389944643271,서울특별시 광진구 광장동 561-15광남중학교,37.54073,127.102905
ST-320,1.4028251841074135,서울특별시 양천구 신월동 790양서중학교 옆,37.533047,126.829956
ST-1647,1.4016347892325192,서울특별시 강서구 방화대로5길 7송정중학교,37.554729,126.816093
ST-1629,1.395399014111635,서울특별시 동대문구 전농동 695-5,37.575733,127.048477
ST-29,1.395135554284619,서울특별시 마포구 백범로 1031-213,37.55352,126.936951
ST-1996,1.3933633614854621,서울특별시 양천구 목동 927-10,37.525715,126.864868
ST-354,1.3850301249945045,서울특별시 서대문구 충정로3가 155-4충청2교,37.562138,126.963776
ST-2865,1.3839251361962701,서울특별시 광진구 뚝섬로 596,37.532986,127.07579
ST-2767,1.3786513355668815,서울특별시 양천구 남부순환로 435,37.528938,126.833122
ST-726,1.3775353445219298,서울특별시 동작구 상도로 지하 2동작구 대방동 466-51,37.500076,126.921082
ST-2842,1.3726572995229198,서울특별시 관악구 남부순환로1774,37.481632,126.947189
ST-1584,1.3698270669298782,서울특별시 송파구 올림픽로 305잠실역 8번출구,37.513962,127.100304
ST-957,1.3697148198491138,서울특별시 강남구 개포로 30310동 앞,37.481384,127.053917
ST-818,1.366398997031111,서울특별시 강남구 남부순환로 27483호선 매봉역 3번출구앞,37.486767,127.046761
ST-1010,1.3648363595429132,서울특별시 양천구 신월동 263신월사거리,37.536201,126.827797
ST-1555,1.362418755332179,서울특별시 서초구 강남대로 605신사역 4번출구 뒤,37.515881,127.019302
ST-2396,1.3616960242866776,서울특별시 양천구 목동동로 81 해누리타운,37.515842,126.864113
ST-2851,1.36154208187647,서울특별시 관악구 신림동 1472-3,37.486752,126.922722
ST-523,1.360565642623317,서울특별시 강서구 강서로 지하 262강서구 화곡동 1159-6,37.548908,126.836563
ST-1655,1.360311538893697,서울특별시 서초구 반포동 128-13,37.498363,126.99115
ST-1529,1.3595809648459622,서울특별시 구로구 구일로 126삼성전자 물류센터 앞,37.496998,126.87178
ST-2624,1.355254035598221,서울특별시 중구 중림로 10 중림동 삼성 사이버 빌리지,37.558914,126.964859
ST-2614,1.3550732647388797,서울특별시 관악구 남부순환로1537,37.483131,126.921356
ST-2504,1.35495357693797,서울특별시 동대문구 회기로 37 한국국방연구원,37.591396,127.040298
ST-1817,1.3541876214208513,서울특별시 종로구 명륜2가 197-4,37.583275,126.998856
ST-746,1.3514516302035862,서울특별시 서초구 고무래로 89 반포써밋,37.500652,127.018616
ST-1974,1.3476582640412156,서울특별시 영등포구 도신로15길 5 영등포 다목적 배드민턴 체육관,37.506115,126.89859
ST-409,1.3470427949779522,서울특별시 동대문구 천호대로 231,37.570354,127.048431
ST-1350,1.3464872339397198,서울특별시 양천구 안양천로 1071이대 목동병원 앞,37.537228,126.886612
ST-2330,1.3449147844534333,서울특별시 성동구 뚝섬로1길 63 영창디지털타워,37.546959,127.047668
ST-2980,1.343787251822259,서울특별시 마포구 만리재로 95 에스테반오피스텔,37.54892,126.959518
ST-1864,1.3390062852751519,서울특별시 송파구 올림픽로 74 잠실월드메르디앙,37.511463,127.078812
ST-1997,1.3381672651950423,서울특별시 양천구 목동로 212 목동신시가지아파트7단지,37.528206,126.870163
ST-641,1.3361067508213438,서울특별시 금천구 가산디지털1로 128가산동 371-37,37.47707,126.88443
ST-840,1.3359089278638456,서울특별시 송파구 석촌호수로12길 3-5송파구 잠실동 31,37.514088,127.09903
ST-2375,1.326100545084523,서울 관악구 신림로 115,37.470688,126.936485
ST-1507,1.3251752332710012,서울특별시 강서구 공항대로 571강서구보건소 (삼성디지털 프라자),37.549179,126.868797
ST-125,1.3242956172341747,서울특별시 종로구 새문안로 102-2 가로판매대,37.569962,126.976158
ST-302,1.3218437512210115,서울특별시 영등포구 신길동263-76도림신협 앞,37.503803,126.903419
ST-108,1.3204809347746278,서울특별시 성동구 왕십리로 지하77서울숲역 4번 출구 옆,37.544582,127.044609
ST-486,1.318521517484621,서울특별시 강동구 올림픽로 714 가로판매대-12,37.545265,127.125938
ST-257,1.3168377994498819,서울특별시 광진구 자양동 722잠실대교북단 교차로,37.532478,127.085091
ST-754,1.3143205768440767,서울특별시 서초구 남부순환로 2183서초구 방배동 2577,37.47261,126.983009
ST-2520,1.3137025784072447,서울특별시 중구 을지로1가 140-1,37.565903,126.981781
ST-2934,1.3131916772511485,서울특별시 서초구 신반포로 56-7 세화고.세화여고.세화여중,37.502094,126.99147
ST-793,1.3116443866028167,서울특별시 강남구 압구정로 311압구정파출소 앞,37.529301,127.035599
ST-482,1.3064373768966695,서울특별시 성동구 성수동2가 276-5KEB하나은행 성수중앙지점,37.545418,127.052643
ST-2027,1.3061708170418105,서울특별시 강서구 가로공원로 189 가로공원로 지하공영주차장,37.537361,126.837448
ST-1761,1.3059927424121893,서울특별시 중구 칠패로 5 서소문공원,37.559891,126.971497
ST-1515,1.3051910278861363,서울특별시 강서구 양천로 22개화산역 2번 출구,37.572472,126.806168
ST-134,1.3045572157976815,서울특별시 중구 남대문로 125 DGB금융센터,37.568634,126.982315
ST-375,1.3022638064401328,서울특별시 성동구 성수일로 27경일중학교 앞,37.543179,127.04908
ST-377,1.301333406240662,서울특별시 광진구 구의강변로 106구의삼성쉐르빌 앞,37.540062,127.094498
ST-873,1.298165000014319,서울특별시 구로구 구로중앙로 174구로동 603-26,37.503117,126.880386
ST-3265,1.2849529346012356,서울특별시 성동구 성수동2가 283-1,37.551052,127.052223
ST-142,1.2848432536106604,서울특별시 종로구 율곡로 지하62안국역 5번출구 앞,37.576241,126.98616
ST-1914,1.282729777898308,서울특별시 서초구 방배로 194-2 구두수선대,37.489918,126.992081
ST-717,1.2822939829743445,서울특별시 관악구 남부순환로 지하 1822관악구 봉천동 979-2,37.481705,126.950829
ST-255,1.282135076953013,서울특별시 광진구 구의동 546-3구의공원(테크노마트 앞),37.535969,127.094673
ST-3045,1.280659707225814,서울특별시 성북구 성북구 솔샘로 107,37.615669,127.008766
ST-174,1.2806396205373893,서울특별시 종로구 율곡로 169원남동사거리,37.576061,126.997681
ST-1243,1.2803662942342056,서울특별시 구로구 천왕로 10천왕이펜하우스5단지 앞,37.479431,126.842697
ST-258,1.2771406081638443,서울특별시 광진구 자양동 738자양나들목,37.52977,127.07486
ST-637,1.2743472748405955,서울특별시 금천구 두산로 71독산동 295-22,37.47023,126.895073
ST-1508,1.2728530573038708,서울특별시 강서구 양천로 696염창동 새마을금고 건너편 (모닝글로리),37.550049,126.873161
ST-362,1.2721719793684516,서울특별시 성동구 왕십리로 64서울숲역 2번출구 앞,37.542816,127.04467
ST-2327,1.2710058250297414,서울특별시 성동구 행당동 33,37.55658,127.043358
ST-3271,1.2706633495627249,서울특별시 마포구 아현동 790,37.555157,126.952927
ST-565,1.2706241171524688,서울특별시 성북구 종암로3길 37-2성북구 종암동 12-33,37.598068,127.039276
ST-2558,1.270588350828127,서울특별시 강서구 강서로 242 강서힐스테이트,37.546638,126.836578
ST-397,1.2703131466335287,서울특별시 동대문구 천호대로 145동대문구 보건소,37.574852,127.040306
ST-714,1.2671144942998323,서울특별시 관악구 봉천로 375관악구 봉천동 975-18,37.483341,126.943199
ST-1495,1.2666843053108572,서울특별시 양천구 목동서로 38목동1단지아파트 118동 앞 (월촌초등학교 정류소 옆),37.541142,126.876678
ST-1005,1.265806151759,서울특별시 양천구 신정동 310-8신트리공원 입구,37.51395,126.856056
ST-2272,1.2654809913676066,서울특별시 동대문구 안암로 6 대광중고등학교,37.578751,127.024025
ST-136,1.2618986371716971,서울특별시 중구 을지로 55명동금융센터 앞,37.566223,126.983589
ST-2308,1.2617077257172067,서울특별시 광진구 화양동 4-1,37.539566,127.072441
ST-3029,1.259133787483298,서울특별시 금천구 디지털로10길 9 현대시티아울렛 가산점,37.477398,126.888779
ST-2022,1.2584743004363623,서울특별시 강서구 방화동 813-18,37.576317,126.816498
ST-298,1.2546469517699557,서울특별시 영등포구 신길동 249우주마루아파트 201동 앞,37.507641,126.92308
ST-2753,1.2507847577020204,서울특별시 구로구 오류동 332-37,37.492672,126.841621
ST-742,1.2506569323510792,서울특별시 서초구 청계산로 지하 179서초구 신원동 276-1,37.448936,127.054375
ST-2876,1.2493777708482556,서울특별시 송파구 송파구 방이동 40-6,37.517078,127.112328
ST-2046,1.2493251372510965,서울특별시 강서구 마곡중앙로 177 더넥센유니버시티,37.569485,126.828094
ST-812,1.248397904458853,서울특별시 강남구 테헤란로 지하 156역삼역 지하보도 2번출구,37.502357,127.04319
ST-492,1.245739961823836,서울특별시 강동구 올림픽로 767,37.549355,127.127083
ST-2468,1.2423784409620477,서울특별시 성동구 왕십리로189,37.554012,127.04155
ST-920,1.2368794906665428,서울특별시 구로구 경인로40길 47구로구 개봉동 416-99,37.494995,126.858253
ST-1810,1.234617911253636,서울특별시 종로구 창경궁로 120 종로플레이스,37.5732,126.997963
ST-3040,1.2332569868696561,서울특별시 영등포구 대림동 646-1,37.502083,126.893188
ST-883,1.2329114491277418,서울특별시 관악구 남부순환로 1369관악구 신림동 1674-8,37.479916,126.90284
ST-186,1.2319388070498767,서울특별시 중구 동호로 지하256동대입구역 6번출구 뒤,37.558872,127.005539
ST-1805,1.2283353287623437,서울특별시 종로구 공평동 70-4,37.570705,126.983238
ST-1700,1.2277512492672442,서울특별시 영등포구 도신로29길 28영일 어린이공원,37.51012,126.904068
ST-1000,1.2263163657469085,서울특별시 양천구 신정동 236서부식자재마트 건너편,37.51038,126.866798
ST-3200,1.225282005673536,서울특별시 영등포구 신길동 195-3,37.51157,126.913979
ST-764,1.2238353446966552,서울특별시 서초구 서초중앙로 지하 31서초구 서초동 1748-38,37.484558,127.01487
ST-2801,1.2236444249891285,서울특별시 영등포구 신길동 4958-1,37.504005,126.92028
ST-679,1.2210738535033976,서울특별시 구로구 개봉로3길 87구로구 개봉동 375-4,37.486061,126.852013
ST-3099,1.2181376023062407,서울특별시 성동구 천호대로 384,37.561687,127.061516
ST-1334,1.2117685760870147,서울특별시 중랑구 망우로 176중랑세무서,37.592758,127.07267
ST-271,1.2091505768901352,서울특별시 동대문구 용두동 237-10시립동부병원 앞 사거리,37.573666,127.030815
ST-1820,1.2074181212303503,서울특별시 종로구 연지동 1-38,37.575836,127.000694
ST-1218,1.2074117777318283,서울특별시 구로구 신도림로 67도야미리숯불갈비 앞,37.51001,126.88205
ST-1975,1.2074008536350012,서울특별시 영등포구 도림동 187-87,37.511242,126.898186
ST-2964,1.2032644899335758,서울특별시 금천구 서부샛길 606 대성디폴리스지식산업센터,37.480175,126.876801
ST-1652,1.202659953593966,서울특별시 영등포구 대림로 153우성아파트 교차로,37.494572,126.89975
ST-2321,1.1973780344557436,서울특별시 광진구 화양동 18-39,37.547989,127.069504
ST-447,1.1965258031263746,서울특별시 성동구 마장로42길 14마장동 주민센터,37.565941,127.045395
ST-803,1.1943459246581893,서울특별시 강남구 남부순환로 지하 2814대치지구대 방향,37.491928,127.056969
ST-2314,1.1938817575708445,서울특별시 광진구 아차산로 360 서원빌딩,37.536575,127.082581
ST-2427,1.1923235324554997,서울특별시 종로구 혜화로 50,37.589836,126.999344
ST-1679,1.1871522775238637,서울특별시 강남구 강남대로 324역삼동 디오슈페리움 (우성아파트 사거리),37.492062,127.030746
ST-1705,1.1862583103285682,서울특별시 송파구 올림픽로 99잠실엘스 261동 인근,37.516781,127.090492
ST-2789,1.1857916670626112,서울특별시 강서구 마곡동 744-2,37.561085,126.816795
ST-126,1.184829997618008,서울특별시 중구 세종대로 136청계광장 옆,37.568878,126.97747
ST-636,1.1827892483293694,서울특별시 금천구 시흥대로 391독산동 291-4,37.469139,126.897202
ST-538,1.177228964829469,서울특별시 강서구 까치산로4길 22강서구 화곡동 98-148,37.54147,126.84478
ST-1564,1.1765803841433191,서울특별시 강남구 개포동 659,37.480251,127.054192
ST-1194,1.1761537810927423,서울특별시 광진구 군자동 111-2세종사이버대학교,37.553417,127.073196
ST-792,1.170520834208599,서울특별시 강남구 압구정로 339-2 가로판매,37.528381,127.039017
ST-3046,1.1700441266978732,서울특별시 성북구 성북구 종암로 123,37.601089,127.033318
ST-887,1.1682281249306405,서울특별시 관악구 남부순환로 지하 1928봉천동 1693-39,37.477028,126.963394
ST-1772,1.1679284168494906,서울특별시 중구 을지로 30 롯데호텔,37.565842,126.979813
ST-361,1.1657705063405368,서울특별시 성동구 동일로 213비전교회 앞,37.551205,127.068932
ST-3214,1.1645379832724612,서울특별시 송파구 오금로 113 석촌씨티빌딩,37.512291,127.108253
ST-600,1.164384535448551,서울특별시 노원구 월계동 47-37,37.615181,127.064644
ST-550,1.162986673492432,서울특별시 송파구 올림픽로 240 롯데월드,37.511841,127.095688
ST-171,1.1628363758735345,서울특별시 종로구 연건동 178-3서울사대부속초교 앞,37.576508,127.002457
ST-177,1.1626714131844442,서울특별시 종로구 종로 411-3 가로판매,37.575592,127.02285
ST-733,1.1596665515328823,서울특별시 동작구 여의대방로16길 53신대방동 460-37,37.494499,126.916527
ST-715,1.1585796912383344,서울특별시 관악구 남부순환로 지하 1822관악구 봉천동 979-2,37.481339,126.950645
ST-2432,1.1579731431387716,서울특별시 중구 중림동 373,37.560246,126.968781
ST-1236,1.1571935035439829,서울특별시 구로구 신도림로 16신도림2차e편한세상아파트 203동 앞,37.50518,126.882538
ST-162,1.1554543051781083,서울특별시 중구 마장로 3맥스타일,37.569183,127.00988
ST-3138,1.1500927975205775,서울특별시 용산구 이태원로 59,37.54039,126.973495
ST-3027,1.1491804559796728,서울특별시 서대문구 충정로 36 국민연금충정로사옥,37.561848,126.964149
ST-1142,1.148974304874749,서울특별시 가산동 144-3가산동 주민센터,37.476952,126.891869
ST-217,1.1485799538371317,서울특별시 서대문구 북아현동 251-78아현동 가구거리,37.557549,126.959381
ST-419,1.14782995701009,서울특별시 영등포구 영등포로 124영등포유통상가 사거리,37.521133,126.896538
ST-1779,1.1472917966096585,서울특별시 중구 을지로 170,37.566051,126.997986
ST-1274,1.1452796375229266,서울특별시 구로구 가마산로 245구로구청,37.495266,126.888474
ST-1197,1.1449444257857213,서울특별시 성동구 하왕십리동 860-1상왕십리역 1번출구,37.56461,127.029198
ST-2397,1.1439917933869197,서울특별시 양천구 목동동로 130 목동신시가지아파트14단지,37.514664,126.871941
ST-1970,1.143518629275066,서울특별시 영등포구 여의도동 1-1,37.527508,126.914299
ST-633,1.1430140754468965,서울특별시 금천구 금하로1길 70독산동 1094 (성민성결교회 앞),37.4547,126.891052
ST-1678,1.1429045304283512,서울특별시 관악구 신림로 144동방1교,37.471828,126.933922
ST-2415,1.1426125454919394,서울특별시 서초구 반포동 28-4,37.508476,127.016762
ST-3002,1.1417602027618505,서울특별시 성동구 서울 성동구 성수일로 10. 서울숲 itct 지식산업센터 앞,37.541275,127.048492
ST-3185,1.1409678634904339,서울특별시 강남구 남부순환로 2741,37.48661,127.045509
ST-1648,1.1405862564403328,서울특별시 금천구 시흥대로 39-7석수역1번출구 앞 (SK주유소),37.437271,126.902687
ST-534,1.139848047891877,서울특별시 강서구 등촌로 19강서구 화곡동 939-3,37.531399,126.863609
ST-767,1.1391108491134276,서울특별시 서초구 남부순환로 지하 2585서초구 양재동 105-4,37.48399,127.03418
ST-2790,1.1373365710370364,서울특별시 강서구 마곡동 780-8,37.567192,126.834755
ST-2806,1.135664036705363,서울특별시 영등포구 국회대로 612 코레일유통 사옥,37.526176,126.901978
ST-2443,1.1305389796558314,서울특별시 용산구 한남대로 148,37.541439,127.003761
ST-2226,1.1293700488959713,서울특별시 성북구 동소문로 98 제일은행,37.592365,127.016289
ST-310,1.1284234887289366,서울특별시 양천구 목동 904-3목4동주민센터 옆,37.532543,126.868729
ST-2057,1.127668918590183,서울특별시 강서구 마곡동 811-6,37.572975,126.832443
ST-97,1.1274187265375413,서울특별시 광진구 능동로 지하210어린이대공원역 3번출구 앞,37.54707,127.074272
ST-727,1.1254873217162094,서울특별시 동작구 시흥대로 634동작구 신대방동 699,37.488361,126.906227
ST-2278,1.124865920917462,서울특별시 동대문구 장안벚꽃로1길 7 장안 힐스테이트,37.576557,127.07431
ST-2014,1.1207933978063787,서울특별시 양천구 목동로3길 57 양천아파트,37.512287,126.86528
ST-2613,1.1203483893682902,서울특별시 강서구 강서구 공항대로 308,37.558029,126.841835
ST-2646,1.118974006208719,서울특별시 영등포구 영등포구 의사당대로 1,37.53054,126.918175
ST-994,1.1180927979451958,서울특별시 양천구 목동서로161SBS방송국,37.529163,126.872749
ST-3089,1.1170962947163465,서울특별시 양천구 신정동 1325-2,37.510975,126.869843
ST-1201,1.1143131496986125,서울특별시 성북구 인촌로7길 120돈암성당 옆,37.590382,127.017136
ST-3061,1.1036017828866516,서울특별시 영등포구 의사당대로 88 한국투자증권빌딩,37.522434,126.922714
ST-1895,1.1006605746030282,서울특별시 강남구 선릉로 845,37.527454,127.040428
ST-2649,1.0985774410260685,서울특별시 동작구 상도동25-41(마을버스정류소20803 옆),37.505432,126.941513
ST-2331,1.0967960834124317,서울특별시 성동구 동일로 265 건영아파트상가,37.555141,127.071106
ST-173,1.0952791024341293,서울특별시 종로구 창경궁로 234성대입구 사거리,37.5825,126.998535
ST-102,1.0939686403270883,서울특별시 광진구 아차산로 355타워더모스트 광진아크로텔,37.53701,127.082245
ST-2668,1.0931937561522376,서울특별시 서초구 양재동 310-6,37.470398,127.042412
ST-2762,1.092851988311329,서울특별시 양천구 중앙로 284 동성빌딩,37.521759,126.852287
ST-3146,1.0922749223809536,서울특별시 양천구 가로공원로 156,37.536427,126.833412
ST-987,1.0915051737663777,서울특별시 광진구 아차산로 304원일교회,37.538052,127.076599
ST-3052,1.0894095057385005,서울특별시 중구 서애로 33 티엔에스빌딩,37.559692,126.996483
ST-2395,1.0890854925532047,서울특별시 양천구 신정동 322-4,37.516865,126.862961
ST-2371,1.0889648911328222,서울특별시 관악구 은천로 110 더블유에스타워,37.486736,126.947517
ST-2800,1.0882797919076024,서울특별시 영등포구 신길동 4963-5,37.501606,126.91745
ST-410,1.0857563185263919,서울특별시 동대문구 장안동 473-6,37.566971,127.074295
ST-2373,1.0854078278877917,서울특별시 관악구 남부순환로 1719 삼성전자디지털센타,37.482754,126.941406
ST-815,1.0841973214056102,서울특별시 강남구 선릉로 435 원광빌딩,37.504009,127.04908
ST-1378,1.082547402997798,서울특별시 광진구 자양로 167광진경찰서,37.542519,127.084084
ST-2012,1.0818821824073521,서울특별시 양천구 목동서로 280 목동신시가지아파트8단지,37.520073,126.868301
ST-3032,1.0811282670532028,서울특별시 금천구 독산동 871-45,37.461395,126.890038
ST-401,1.079811245027526,서울특별시 동대문구 이문로 107외국어대 정문 앞,37.59602,127.05983
ST-1221,1.0791545966852003,서울특별시 구로구 가마산로25길 9-24구로구의회 앞,37.496456,126.889587
ST-1663,1.0780246279950794,서울특별시 광진구 뚝섬로 639중앙농협(자양동),37.531811,127.080742
ST-1808,1.0747847764219787,서울특별시 종로구 종로 153-2 가로판매대,37.570721,126.994377
ST-2280,1.0743896508974666,서울특별시 동대문구 이문동 346-131,37.592384,127.057411
ST-391,1.0705179751047837,서울특별시 동대문구 서울시립대로 161서울시립대 정문 앞(시더프라자빌딩 앞),37.583698,127.053856
ST-3286,1.0693066086669432,서울특별시 동대문구 전농동 623-19,37.577633,127.04464
ST-2379,1.0684499337295956,서울특별시 관악구 남부순환로 1654 은천교회,37.484646,126.934509
ST-2976,1.0648576783536963,서울특별시 마포구 공덕동 4-11,37.550159,126.960526
ST-2834,1.0588019707629202,서울특별시 성동구 성동구 광나루로 130,37.551414,127.044754
ST-2513,1.0587808089232216,서울특별시 종로구 관수동91-1,37.568558,126.992119
ST-483,1.0573504541659153,서울특별시 광진구 능동로 10뚝섬유원지역,37.532688,127.067497
ST-138,1.0566879488215357,서울특별시 중구 명동길 74명동성당 앞,37.564476,126.986969
ST-2479,1.0545153271784276,서울특별시 강서구 양천로590,37.55603,126.864296
ST-3043,1.0530795878154366,서울특별시 성동구 동일로 169,37.547535,127.066826
ST-1215,1.0529363564806784,서울특별시 성북구 안암로 17SK제삼주유소 앞,37.579449,127.024193
ST-2273,1.0528430605858043,서울특별시 동대문구 약령시로 25 안암골 벽산아파트,37.58408,127.031036
ST-1730,1.049262204562676,서울특별시 송파구 오금로 162송파나루역 4번 출구옆,37.509979,127.112312
ST-890,1.049182993468532,서울특별시 서초구 매헌로 16양재동 217-3,37.463322,127.036041
ST-701,1.0490657950758961,서울특별시 동작구 장승배기로 26상도동 201-38,37.500881,126.94175
ST-1553,1.0424283618673778,서울특별시 서초구 서초대로 248서초역1번출구 앞,37.491951,127.008553
ST-2318,1.037468191159236,서울특별시 광진구 화양동 21-62,37.54789,127.067451
ST-276,1.036955895316813,서울특별시 동대문구 답십리동 94-2청솔우성아파트 앞,37.574203,127.057693
ST-244,1.0352804186911666,서울특별시 성동구 하왕십리동 286-24청계벽산아파트 텐즈힐아파트 정류소,37.568748,127.030403
ST-2325,1.0334803715925869,서울특별시 광진구 군자동 473-26,37.557713,127.077271
ST-1013,1.032574328328861,서울특별시 양천구 등촌로 236등촌역 5번 출구 뒤,37.550732,126.864578
ST-719,1.0297287305149685,서울특별시 관악구 남부순환로 1889관악구 봉천동 1693-38,37.478058,126.960495
ST-2340,1.0282938493267841,서울특별시 성동구 마장동 336-11,37.563396,127.04187
ST-2551,1.0230891322997608,서울특별시 강서구 화곡로 206 삼영빌딩,37.543827,126.843689
ST-757,1.0210271694990256,서울특별시 서초구 서초대로 지하 103서초구 방배동 874-16,37.489052,126.992523
ST-1609,1.0204066799267832,서울특별시 종로구 종로 383-1숭인2동 주민센터 입구 (이강3대냉면),37.574471,127.019829
ST-1300,1.0200941469378693,서울특별시 동대문구 한천로 42장안동위더스빌옆,37.5667,127.062424
ST-1939,1.0183040205929375,서울특별시 금천구 시흥대로 155,37.447853,126.902885
ST-2452,1.0172282280880822,서울특별시 용산구 녹사평대로73,37.52515,126.992088
ST-3042,1.0149061266050117,서울특별시 성동구 광나루로 144 더 스페이스 타워,37.551403,127.046364
ST-2899,1.0148784741830505,서울특별시 영등포구 영등포구 여의나루로 76,37.523479,126.927116
ST-2440,1.014256426237973,서울특별시 용산구 용산동6가 11-438,37.521458,126.977676
ST-1712,1.0129124223691681,서울특별시 강서구 마곡동로 110코오롱글로벌㈜,37.564129,126.834312
ST-784,1.009780420298599,서울특별시 강남구 영동대로112길 66삼성도로공원,37.515888,127.0662
ST-629,1.00488121816964,서울특별시 금천구 시흥대로 198시흥동 1000-92,37.451458,126.902115
ST-1327,1.0030372478301974,서울특별시 용산구 원효로 35청암자이아파트앞,37.534424,126.94857
ST-1239,1.0022154271827144,서울특별시 구로구 오리로 지하 1154천왕역 1번 출입구 앞,37.48621,126.838821
ST-676,1.0019386510565085,서울특별시 구로구 고척로45길 1,37.503815,126.851959
ST-3003,0.9991122679333995,서울특별시 성동구 성동구 아차산로 144,37.543324,127.059715
ST-2190,0.9988546628708128,서울특별시 용산구 후암로 65 브라운스톤 남산아파트,37.551548,126.97686
ST-2663,0.9974902056680591,서울특별시 서초구 반포동60-1,37.503204,127.006531
ST-983,0.996117013187665,서울특별시 광진구 능동로 313군자역2번출구,37.557587,127.079697
ST-509,0.9953286862510687,서울특별시 강서구 금낭화로 176강서구 방화동 855,37.581623,126.812653
ST-963,0.9952935202673057,서울특별시 강남구 학동로 342강남구청역 2번출구 뒤,37.516811,127.040474
ST-1967,0.994444473314642,서울특별시 영등포구 신길로 275 영등포문화원,37.514812,126.911705
ST-2338,0.9941362185582998,서울특별시 성동구 금호동2가 1-5,37.556107,127.019783
ST-156,0.9931176586467655,서울특별시 종로구 창경궁로 271-1혜화동 로터리,37.585629,127.000679
ST-170,0.9923162593612103,서울특별시 종로구 창덕궁1길 3포르투갈 대사관 앞,37.579155,126.98896
ST-2932,0.991153579292692,서울특별시 금천구 시흥대로73길 70 금천구청종합청사,37.457035,126.894325
ST-2650,0.9892926166509057,서울특별시 동작구 흑석동143-57,37.511204,126.961281
ST-445,0.9888168217686292,서울특별시 광진구 군자동 374-8광진광장 교통섬,37.547829,127.072632
ST-1782,0.9873361947669251,서울특별시 중구 광희동2가 105-32,37.56443,127.009956
ST-2996,0.9869833004980526,서울특별시 관악구 서울 관악구 신림동 458,37.488571,126.921387
ST-2839,0.9857943373351928,서울특별시 강남구 강변오솔길,37.527962,127.051628
ST-1306,0.985375064198386,서울특별시 서초구 반포대로 43서울서초고용센터 앞,37.484161,127.010971
ST-762,0.9848246607123914,서울특별시 서초구 효령로36길 22서초동 1418,37.491112,127.022957
ST-230,0.9845313336861856,서울특별시 서대문구 충정로2가 138서대문역 8번출구 앞,37.564777,126.966148
ST-1722,0.9828101596795863,서울특별시 광진구 광나루로 545 래미안파크스위트,37.545006,127.090034
ST-2137,0.9812837127269225,서울특별시 강북구 도봉로 342,37.63797,127.025902
ST-3236,0.9774753046662136,서울특별시 금천구 가산로9길 109,37.474525,126.887077
ST-235,0.9771780829552282,서울특별시 성동구 홍익동 590양지사거리,37.566994,127.029915
ST-2653,0.9737374533911736,서울특별시 동작구 신대방동 702-2,37.485008,126.903503
ST-144,0.9731250814466288,서울특별시 종로구 종로 99탑골공원 앞,37.570396,126.98819
ST-2770,0.9728618268230568,서울특별시 양천구 신월로15길 25,37.520916,126.840958
ST-942,0.972599742499572,서울특별시 중랑구 동일로 628하나은행,37.586372,127.080071
ST-234,0.9723155140892433,서울특별시 성동구 마장동 610청계천 박물관 앞,37.571526,127.035355
ST-2181,0.9708481562222498,서울특별시 용산구 이태원로 217 현대안성타워,37.535088,126.997971
ST-1537,0.9699708994723109,서울특별시 금천구 남부순환로128길 42모두의학교,37.478409,126.907372
ST-2305,0.9687297623330979,서울특별시 광진구 자양동 712,37.535072,127.076111
ST-1273,0.9674362955194675,서울특별시 구로구 새말로 31구로동롯데아파트,37.502548,126.883881
ST-195,0.9665443977923073,서울특별시 중구 동호로 330CJ제일제당 앞,37.563866,127.002747
ST-1681,0.9653856891425985,서울특별시 송파구 올림픽로 326 송파구청,37.515053,127.10627
ST-1959,0.965245284586507,서울특별시 구로구 오리로 1100 천왕연지타워,37.483665,126.841614
ST-1961,0.9649741594889346,서울특별시 구로구 중앙로6길 5-15 청구아파트,37.50119,126.863533
ST-3075,0.9633502775645175,서울특별시 종로구 세종로 208,37.569931,126.976433
ST-325,0.9628066295572317,서울특별시 용산구 한남동 725-17한남초교 앞 보도육교,37.538139,127.004097
ST-2235,0.9609537106581854,서울특별시 성북구 정릉로 325-1,37.602425,127.019981
ST-2999,0.959456830910209,서울특별시 금천구 가산디지털2로 98 IT캐슬,37.476368,126.880836
ST-974,0.9557371829226743,서울특별시 광진구 능동로 120학생회관,37.541912,127.077637
ST-624,0.9550438290849387,서울특별시 금천구 디지털로9길 32가산동 60-35,37.479031,126.887299
ST-2763,0.9535944549528477,서울특별시 양천구 목동동로 130,37.514069,126.869987
ST-885,0.9534178773181339,서울특별시 관악구 신림로 137관악구 신림동 289-3,37.472294,126.933411
ST-1174,0.9497092817284571,서울특별시 강남구 도산대로 333K+ 타워 앞,37.5233,127.038475
ST-1814,0.9475763748845529,서울특별시 종로구 창신동 23-825,37.577724,127.015251
ST-1501,0.9456759504121949,서울특별시 양천구 남부순환로 699잣절보도육교 아래,37.506821,126.844299
ST-3219,0.9443494367560104,서울특별시 금천구 디지털로10길 78 가산테라타워,37.475204,126.890129
ST-358,0.9442268499352676,서울특별시 성동구 무학로10길 6도선동 주민센터 앞,37.567642,127.025696
ST-511,0.9404642672446033,서울특별시 강서구 방화동로 지하 30강서구 공항동 산20-2,37.563347,126.810486
ST-2887,0.9388562163604035,서울특별시 강서구 곰달래로37길 13 화곡2동주민센터,37.531822,126.854622
ST-1929,0.9385835756376871,서울특별시 서초구 반포대로 201 국립중앙도서관,37.497211,127.004272
ST-870,0.9360604696841205,서울특별시 구로구 경인로40길 47구로구 개봉동 202-42,37.494282,126.859215
ST-236,0.9345939707907233,서울특별시 성동구 하왕십리동 960-3상왕십리역 4번 출구 앞,37.563858,127.030319
ST-1454,0.9341711635278334,서울특별시 성북구 보문로 112-2,37.585197,127.019669
ST-1786,0.9335152234370226,서울특별시 중구 다산로 122 약수역 3호선,37.554321,127.010704
ST-1398,0.9334941559139525,서울특별시 양천구 신정로7길 92연의근린공원 건너편,37.512157,126.835625
ST-394,0.9312980964402493,서울특별시 동대문구 장한로6길 95군자교녹지대 동측 앞,37.561153,127.070969
ST-939,0.9293110214328072,서울특별시 종로구 진흥로 499신영동 삼거리,37.603992,126.961945
ST-2689,0.9288021288340393,서울특별시 강남구 역삼로7길 16 역삼1문화센터,37.495213,127.033028
ST-2274,0.9286025192125376,서울특별시 성북구 안암동5가 40-11,37.586552,127.033142
ST-248,0.9258836239034854,서울특별시 성동구 행당동 347-11행당역 2번출구 앞,37.55735,127.029213
ST-2219,0.9228556715911794,서울특별시 서대문구 서소문로 45 SK리쳄블,37.561317,126.966583
ST-1882,0.9217021506229647,서울특별시 강남구 도곡동 556,37.495899,127.052193
ST-1230,0.9212736149197295,서울특별시 구로구 고척로22길 64동인오피스텔 건너편 소공원,37.498482,126.847504
ST-539,0.9202561823853903,서울특별시 송파구 올림픽로 8송파구 잠실동 50,37.510429,127.071373
ST-2269,0.9192745199312303,서울특별시 동대문구 서울시립대로 14 청계한신휴플러스,37.572147,127.044609
ST-313,0.9188076477630874,서울특별시 양천구 신월동 894신정네거리역,37.521881,126.851753
ST-1757,0.9184360583526313,서울특별시 관악구 신림로 97 밀라트,37.470467,126.938652
ST-1637,0.9169282492298579,서울특별시 성북구 하월곡동 46-126,37.602356,127.039078
ST-1224,0.9167538616739128,서울특별시 구로구 디지털로26길 5가리봉동주민센터,37.481602,126.892799
ST-2361,0.9163171246441205,서울특별시 동작구 상도동 415-1,37.500248,126.94973
ST-1586,0.9157922822585874,서울특별시 송파구 석촌호수로12길 1-16석촌호수교차로(동호 팔각정 앞),37.509201,127.104118
ST-3260,0.915446469067827,서울특별시 강서구 마곡중앙10로 30 LG사이언스파크,37.561535,126.83194
ST-1098,0.913222525077686,서울특별시 면목동 120-2면목역 3번출구,37.588902,127.08728
ST-686,0.9125545977561583,서울특별시 동작구 여의대방로44길 20동작구 대방동 503-2,37.509369,126.92807
ST-2880,0.909810704630637,서울특별시 용산구 용산구 동빙고동 315,37.525295,126.995834
ST-2642,0.9095218873777761,서울특별시 금천구 독산동1081-4(독산역마을버스정류장 뒤 자전거 거치대 옆),37.467094,126.889206
ST-112,0.90946296721739,서울특별시 성동구 아차산로 171성수사거리 버스정류장 앞,37.54258,127.063309
ST-1574,0.908607487892361,서울특별시 강남구 개포로 지하 522대모산입구역 4번 출구 앞,37.49181,127.073158
ST-1512,0.9080140780189846,서울특별시 강서구 공항대로 453대한항공 인력개발센터,37.554379,126.857536
ST-371,0.9055397072333472,서울특별시 성동구 광나루로 297 성동세무서,37.54829,127.062462
ST-531,0.9045254897914986,서울특별시 강서구 등촌로 167강서구 등촌동 608-6,37.544788,126.862
ST-3252,0.903140256888531,서울특별시 구로구 가마산로 208,37.493126,126.884247
ST-1577,0.9014049326027072,서울특별시 강남구 강남대로 지하 396역삼.서초.삼성 세무서 앞 (역삼빌딩 앞),37.49847,127.030113
ST-3098,0.8990868451393343,서울특별시 강동구 천호동 250-7,37.548164,127.122574
ST-993,0.897412408540846,서울특별시 양천구 신월로 342-1 구두수선대19,37.521511,126.857384
ST-240,0.8963533655079442,서울특별시 성동구 금호동2가 1220-1래미안금호하이리버 아파트 102동 옆,37.5522,127.025055
ST-771,0.8957510898253678,서울특별시 서초구 태봉로2길 24우면동 718,37.462639,127.026619
ST-1400,0.8918093774483655,서울특별시 양천구 목동중앙남로 100성원2차 아파트,37.542183,126.863304
ST-3243,0.890843909745161,서울특별시 강남구 도산대로 446-2,37.523903,127.046608
ST-732,0.8907505184804361,서울특별시 동작구 사당동 1157-2,37.489079,126.973564
ST-1386,0.8900115544866426,서울특별시 성북구 정릉로 272정릉역,37.603096,127.013504
ST-407,0.8887017833642413,서울특별시 동대문구 홍릉로 26-1 거리가게,37.58255,127.044601
ST-2435,0.8853072965127431,서울특별시 구로구 천왕동 63-5,37.476048,126.845016
ST-1007,0.8852843677179196,서울특별시 양천구 남부순환로70길11-9오솔길공원,37.52219,126.8367
ST-425,0.8850270666979932,서울특별시 영등포구 여의동로 48샛강생태공원장문자센터 앞,37.518963,126.921616
ST-273,0.8822515059427876,서울특별시 동대문구 용두동 237-10용두동 사거리,37.577686,127.031013
ST-3030,0.8819389427070586,서울특별시 영등포구 양평동2가 33-80,37.525566,126.885841
ST-1518,0.8807225785086619,서울특별시 강서구 발산로 40농산식품공사 (강서지사),37.551044,126.818497
ST-1499,0.8806366730176853,서울특별시 양천구 목동동로 33한사랑교회 앞,37.514721,126.8592
ST-988,0.8772022802634768,서울특별시 광진구 능동로 42신양초교앞 교차로,37.535221,127.068398
ST-984,0.8771089187176293,서울특별시 광진구 자양로 131광진구청 앞,37.539501,127.083
ST-1165,0.8766981718458514,서울특별시 양재동 67-12일동제약 사거리,37.477829,127.038269
ST-2507,0.8764729187321811,서울특별시 동대문구 청계천로 517,37.571301,127.033623
ST-1105,0.8759227163589016,서울특별시 강북구 미아동 66-1미아사거리 1번 출구,37.613956,127.030251
ST-1445,0.8754433680180869,서울특별시 용산구 이태원로 134녹사평역 광장,37.533798,126.98867
ST-2502,0.8742227291920734,서울특별시 동대문구 용두동 150-32,37.579586,127.030243
ST-157,0.8738199764330313,서울특별시 종로구 대학로 지하120혜화역 3번출구 뒤,37.58157,127.001785
ST-252,0.8729665971250138,서울특별시 광진구 중곡동 263-1군자교교차로,37.559795,127.074203
ST-2563,0.866672195289982,서울특별시 영등포구 영등포구 경인로77길 49,37.513748,126.888512
ST-402,0.8654674792675229,서울특별시 동대문구 이문로1길 11시조사 앞 (청량고정문 옆),37.587517,127.052773
ST-3215,0.8614997380911937,서울특별시 양천구 신월동 446-3,37.523994,126.842133
ST-770,0.8605984036489346,서울특별시 서초구 바우뫼로18길 14서초구 양재동 127-1,37.473614,127.03051
ST-265,0.8589503768214245,서울특별시 동대문구 천호대로 26신설동역9번출구,37.5742,127.026497
ST-1582,0.858869050239712,서울특별시 송파구 석촌호수로 176석촌호교차로 (스타벅스 앞),37.506561,127.096558
ST-332,0.8586849968936885,서울특별시 용산구 용산동2가 6-7녹사평역1번출구,37.53508,126.985382
ST-2463,0.8559302234264372,서울특별시 구로구 서울 구로구 개봉동 412-43,37.49334,126.859177
ST-1456,0.8551068944874275,서울특별시 성북구 성북로 25성북동 치안센터 앞,37.590172,127.004089
ST-769,0.8544463333638861,서울특별시 서초구 바우뫼로1길 35서초구 양재동 20-40,37.477852,127.03891
ST-2382,0.8543691619623943,서울특별시 관악구 남부순환로 1868,37.479465,126.956932
ST-1960,0.8527397129019247,서울특별시 구로구 개봉로19길 87 로얄파크,37.493965,126.853043
ST-3136,0.8520383648579758,서울특별시 성동구 성수일로10길 26 하우스디 세종타워,37.546444,127.053322
ST-3208,0.8493570654411929,서울특별시 강남구 논현동 56-21,37.51281,127.026367
ST-1885,0.8478250189268044,서울특별시 강남구 삼성동 111-86,37.514309,127.0597
ST-274,0.846303200229534,서울특별시 동대문구 용두동 696-13용두동 레미안허브리츠아파트 앞,37.576382,127.03511
ST-2821,0.8461947692438393,서울특별시 영등포구 영등포동 649-1,37.514702,126.91214
ST-2768,0.8449033810796117,서울특별시 양천구 신월로 200,37.520111,126.844749
ST-1793,0.84481411612093,서울특별시 송파구 양재대로 925 가락1동주민센터,37.50005,127.111511
ST-3077,0.8430338343166427,서울특별시 강남구 테헤란로 518 한국섬유산업연합회,37.507671,127.060173
ST-1978,0.8423408429426797,서울특별시 영등포구 선유로 87,37.521828,126.889725
ST-1500,0.842322094363634,서울특별시 양천구 오목로3길 32보아스아파트 앞,37.524071,126.8386
ST-1887,0.8414945984447423,서울특별시 강남구 봉은사로 110 연우빌딩,37.504673,127.025795
ST-765,0.8402486330190639,서울특별시 서초구 서초대로 지하 294서초구 서초동 1748-6,37.494217,127.013786
ST-3221,0.8402363570548812,서울특별시 서초구 양재천로19길 4,37.475559,127.038261
ST-2643,0.8399085797845236,서울특별시 영등포구 영등포구 의사당대로 1,37.532574,126.914047
ST-3166,0.8395247811273291,서울특별시 관악구 봉천동 42-59,37.485065,126.95546
ST-625,0.8383450289503759,서울특별시 금천구 가산로 99가산동 153-16,37.47422,126.894127
ST-2404,0.8383073910855691,서울특별시 서초구 헌릉로 7 외국기업창업지원연구센터,37.465408,127.043777
ST-2483,0.8377979463781222,서울특별시 강서구 강서로74길58,37.566441,126.844307
ST-1432,0.8373263536523939,서울특별시 종로구 종로 지하 200종묘공영주차장 건너편,37.57048,126.996635
ST-1335,0.8363327661380184,서울특별시 중랑구 겸재로 68겸재교진입부,37.585655,127.07505
ST-2339,0.8358975810188484,서울특별시 성동구 행당동 379-1,37.55653,127.039131
ST-384,0.834789347805645,서울특별시 광진구 능동로 216구의문주차장 앞,37.545231,127.084732
ST-1302,0.8342696264669414,서울특별시 동대문구 망우로 131중랑교사거리,37.591534,127.067741
ST-1566,0.8330359955656791,서울특별시 강남구 언주로 118영동3교 북단(우성캐릭터 앞 보도),37.485741,127.051048
ST-1982,0.8306838319361178,서울특별시 영등포구 가마산로 442 래미안프레비뉴,37.504383,126.908089
ST-3194,0.8305921581947794,서울특별시 구로구 중앙로5길 59,37.501087,126.860458
ST-1227,0.8275699987551609,서울특별시 구로구 개봉동 139-4,37.497242,126.859123
ST-2728,0.8239808701486769,서울특별시 송파구 백제고분로 11 신천중학교,37.516403,127.077614
ST-392,0.8220911300559395,서울특별시 동대문구 서울시립대로 31전농동 동아아파트 앞(T-World 앞 보도),37.574188,127.045891
ST-1753,0.8207833536309764,서울특별시 구로구 디지털로31길 33-1에이스트윈타워1차,37.484371,126.895424
ST-1936,0.8150752374859328,서울특별시 금천구 시흥동 113-155,37.456333,126.896454
ST-253,0.8145007901600766,서울특별시 광진구 군자동 499군자역 7번출구 베스트샵 앞,37.55603,127.078644
ST-2546,0.8135064009739522,서울특별시 광진구 광진구 뚝섬로52길 58,37.529163,127.077988
ST-1992,0.8126936226128637,서울특별시 영등포구 문래로 121 서울특별시 남부교육지원청,37.519333,126.895302
ST-2001,0.8118284095521148,서울특별시 양천구 목동중앙남로3가길 59 세종그랑시아아파트,37.538376,126.863831
ST-1520,0.8116581712844996,서울특별시 강서구 까치산로24길 47KC 대학교,37.548321,126.853401
ST-953,0.8097307505411311,서울특별시 강남구 영동대로 647청담역 2번출구,37.519787,127.056763
